$PMTK011,MTKGPS*08
$PMTK010,001*2E
$PMTK010,002*2D
$GPGGA,235943.799,,,,,0,0,,,M,,M,,*45,,,,*1E
$GPGGA,235944.799,,,,,0,0,,,M,,M,,*42
$GPGSA,A,1,,,,,,,,,,,,,,,*1E
$GPGGA,235945.799,,,,,0,0,,,M,,M,,*43
$GPGSA,A,1,,,,,,,,,,,,,,,*1E
$GPGGA,235946.799,,,,,0,0,,,M,,M,,*40
$GPGSA,A,1,,,,,,,,,,,,,,,*1E
$GPGGA,235947.799,,,,,0,0,,,M,,M,,*41
$GPGSA,A,1,,,,,,,,,,,,,,,*1E
$GPGGA,235948.799,,,,,0,0,,,M,,M,,*4E
$GPGSA,A,1,,,,,,,,,,,,,,,*1E
$GPGGA,235949.799,,,,,0,0,,,M,,M,,*4F
$GPGSA,A,1,,,,,,,,,,,,,,,*1E
$GPGGA,235950.799,,,,,0,0,,,M,,M,,*47
$GPGSA,A,1,,,,,,,,,,,,,,,*1E
$GPGGA,235951.799,,,,,0,0,,,M,,M,,*46
$GPGSA,A,1,,,,,,,,,,,,,,,*1E
$GPGGA,235952.799,,,,,0,0,,,M,,M,,*45
$GPGSA,A,1,,,,,,,,,,,,,,,*1E
$GPGGA,235953.799,,,,,0,0,,,M,,M,,*44
$GPGSA,A,1,,,,,,,,,,,,,,,*1E
$GPGGA,235954.379,,,,,0,0,,,M,,M,,*49
$GPGSA,A,1,,,,,,,,,,,,,,,*1E
$GPGGA,235955.379,,,,,0,0,,,M,,M,,*48
$GPGSA,A,1,,,,,,,,,,,,,,,*1E
$GPGGA,130720.096,,,,,0,0,,,M,,M,,*40
$GPGSA,A,1,,,,,,,,,,,,,,,*1E
$GPGGA,130721.096,,,,,0,0,,,M,,M,,*41
$GPGSA,A,1,,,,,,,,,,,,,,,*1E
$GPGSV,3,1,11,01,85,344,,02,61,11,250526,,,N*42
$GPGGA,130722.096,,,,,0,0,,,M,,M,,*42
$GPGSA,A,1,,,,,,,,,,,,,,,*1E
$GPGGA,130723.101,,,,,0,1,,,M,,M,,*4D
$GPGSA,A,1,,,,,,,,,,,,,,,*1E
$GPGGA,130724.101,,,,,0,2,,,M,,M,,*49
$GPGSA,A,1,,,,,,,,,,,,,,,*1E
$GPGGA,130725.101,,,,,0,4,,,M,,M,,*4E
$GPGSA,A,1,,,,,,,,,,,,,,,*1E
$GPGGA,130726.101,,,,,0,4,,,M,,M,,*4D
$GPGSA,A,1,,,,,,,,,,,,,,,*1E
$GPGGA,130728.000,4929.9095,N,00546.6868,E,1,4,4.05,359.7,M,47.6,M,,*5F
$GPGSA,A,3,02,14,03,01,,,,,,,,,4.16,4.05,0.94*08
$GPGSV,3,1,129,171,42*79
$GPGGA,130729.000,4929.9126,N,00546.6863,E,1,5,2.95,362.3,M,47.6,M,,*5E
$GPGSA,A,3,22,02,14,03,01,,,,,,,,3.10,2.95,0.94*06
$GPGSV,3,1,08,19,171,42*7F
$GPGGA,130730.000,4929.9154,N,00546.6869,E,1,4,4.22,361.3,M,47.6,M,,*51
$GPGSA,A,3,02,14,03,01,,,,,,,,,5.08,4.22,2.83*07
$GPGSV,3,1,12,19,171,42*7F
$GPGGA,130731.000,4929.9423,N,00546.6844,E,1,5,2.51,378.7,M,47.6,M,,*55
$GPGSA,A,3,08,02,14,03,01,,,,,,,,3.56,2.51,2.53*0D
$GPGSV,3,1,19,171,40*7B
$GPGGA,130732.000,4929.9451,N,00546.6840,E,1,7,1.53,380.9,M,47.6,M,,*5D
$GPGSA,A,3,08,22,02,14,03,01,17,,,,,,1.77,1.53,0.90*06
$GPGSV,,287,17,08,19,171,40*78
$GPGGA,130733.000,4929.9459,N,00546.6837,E,1,7,1.53,381.7,M,47.6,M,,*5B
$GPGSA,A,3,08,22,02,14,03,01,17,,,,,,1.78,1.53,0.90*09
$GPGSV,,287,19,08,19,171,40*74
$GPGGA,130734.000,4929.9460,N,00546.6833,E,1,7,1.53,382.9,M,47.6,M,,*5F
$GPGSA,A,3,08,22,02,14,03,01,17,,,,,,1.78,1.53,0.90*09
$GPGSV,,287,18,08,19,171,38*79
$GPGGA,130735.000,4929.9463,N,00546.6832,E,1,7,1.53,383.8,M,47.6,M,,*5C
$GPGSA,A,3,08,22,02,14,03,01,17,,,,,,1.77,1.53,0.90*06
$GPGSV,6,35,19,07,321,*72
$GPGGA,130736.000,4929.9465,N,00546.6830,E,1,7,1.53,384.7,M,47.6,M,,*53
$GPGSA,A,3,08,22,02,14,03,01,17,,,,,,1.77,1.53,0.90*06
$GPGSV,,287,17,08,19,171,38*76
$GPGGA,130737.000,4929.9466,N,00546.6829,E,1,7,1.53,385.6,M,47.6,M,,*59
$GPGSA,A,3,08,22,02,14,03,01,17,,,,,,1.77,1.53,0.90*06
$GPGSV,,287,17,08,19,171,38*75
$GPGGA,130738.000,4929.9465,N,00546.6826,E,1,7,1.53,386.4,M,47.6,M,,*5B
$GPGSA,A,3,08,22,02,14,03,01,17,,,,,,1.77,1.53,0.90*06
$GPGSV,38,19,07,321,*77
$GPGGA,130739.000,4929.9468,N,00546.6826,E,1,7,1.53,386.2,M,47.6,M,,*51
$GPGSA,A,3,08,22,02,14,03,01,17,,,,,,1.78,1.53,0.90*09
$GPGSV,87,25,08,19,171,39*79
$GPGGA,130740.000,4929.9468,N,00546.6825,E,1,7,1.53,386.3,M,47.6,M,,*5D
$GPGSA,A,3,08,22,02,14,03,01,17,,,,,,1.77,1.53,0.90*06
$GPGSV,87,25,08,19,171,40*77
$GPGGA,130741.000,4929.9469,N,00546.6826,E,1,7,1.53,386.4,M,47.6,M,,*59
$GPGSA,A,3,08,22,02,14,03,01,17,,,,,,1.77,1.53,0.90*06
$GPGSV,87,25,08,19,171,41*76
$GPGGA,130742.000,4929.9470,N,00546.6827,E,1,7,1.53,386.5,M,47.6,M,,*52
$GPGSA,A,3,08,22,02,14,03,01,17,,,,,,1.77,1.53,0.90*06
$GPGSV,87,26,08,19,171,42*76
$GPGGA,130743.000,4929.9468,N,00546.6825,E,1,7,1.53,387.2,M,47.6,M,,*5E
$GPGSA,A,3,08,22,02,14,03,01,17,,,,,,1.78,1.53,0.90*09
$GPGSV,86,26,08,19,171,42*7D
$GPGGA,130744.000,4929.9468,N,00546.6823,E,1,7,1.53,387.9,M,47.6,M,,*54
$GPGSA,A,3,08,22,02,14,03,01,17,,,,,,1.77,1.53,0.90*06
$GPGSV,286,25,08,19,171,43*7F
$GPGGA,130745.000,4929.9468,N,00546.6824,E,1,7,1.53,388.1,M,47.6,M,,*55
$GPGSA,A,3,08,22,02,14,03,01,17,,,,,,1.78,1.53,0.90*09
$GPGSV,86,25,08,19,171,43*7F
$GPGGA,130746.000,4929.9468,N,00546.6824,E,1,7,1.53,388.3,M,47.6,M,,*54
$GPGSA,A,3,08,22,02,14,03,01,17,,,,,,1.78,1.53,0.90*09
$GPGSV,86,26,08,19,171,43*7C
$GPGGA,130747.000,4929.9469,N,00546.6825,E,1,7,1.53,388.1,M,47.6,M,,*57
$GPGSA,A,3,08,22,02,14,03,01,17,,,,,,1.78,1.53,0.90*09
$GPGSV,86,26,08,19,171,43*7C
$GPGGA,130748.000,4929.9468,N,00546.6821,E,1,7,1.53,388.7,M,47.6,M,,*5B
$GPGSA,A,3,08,22,02,14,03,01,17,,,,,,1.78,1.53,0.90*09
$GPGSV,86,27,08,19,171,43*73
$GPGGA,130749.000,4929.9468,N,00546.6818,E,1,7,1.53,388.8,M,47.6,M,,*5F
$GPGSA,A,3,08,22,02,14,03,01,17,,,,,,1.77,1.53,0.90*06
$GPGGA,130750.000,4929.9466,N,00546.6813,E,1,7,1.53,389.2,M,47.6,M,,*59
$GPGSA,A,3,08,22,02,14,03,01,17,,,,,,1.78,1.53,0.90*09
$GPGSV,86,26,08,19,171,43*72
$GPGGA,130751.000,4929.9463,N,00546.6810,E,1,7,1.53,389.6,M,47.6,M,,*5A
$GPGSA,A,3,08,22,02,14,03,01,17,,,,,,1.78,1.53,0.90*09
$GPGSV,39,19,07,321,20*7C
$GPGGA,130752.000,4929.9457,N,00546.6806,E,1,7,1.53,390.8,M,47.6,M,,*5F
$GPGSA,A,3,08,22,02,14,03,01,17,,,,,,1.78,1.53,0.90*09
$GPGSV,3*73
$GPGGA,130753.000,4929.9455,N,00546.6803,E,1,7,1.53,391.1,M,47.6,M,,*51
$GPGSA,A,3,08,22,02,14,03,01,17,,,,,,1.78,1.53,0.90*09
$GPGSV,286,27,08,19,171,43*73
$GPGGA,130754.000,4929.9453,N,00546.6801,E,1,7,1.53,391.4,M,47.6,M,,*57
$GPGSA,A,3,08,22,02,14,03,01,17,,,,,,1.78,1.53,0.90*09
$GPGSV,286,27,08,19,171,43*73
$GPGGA,130755.000,4929.9452,N,00546.6800,E,1,8,1.38,391.8,M,47.6,M,,*58
$GPGSA,A,3,08,04,22,02,14,03,01,17,,,,,1.65,1.38,0.89*04
$GPGS9,286,27,08,19,171,43*73
$GPGGA,130756.000,4929.9451,N,00546.6800,E,1,8,1.38,391.8,M,47.6,M,,*58
$GPGSA,A,3,08,04,22,02,14,03,01,17,,,,,1.65,1.38,0.89*04
$GPGS,286,27,08,19,171,43*73
$GPGGA,130757.000,4929.9452,N,00546.6801,E,1,8,1.38,391.7,M,47.6,M,,*54
$GPGSA,A,3,08,04,22,02,14,03,01,17,,,,,1.65,1.38,0.89*04
$GPGS19,171,43,14,15,269,29*7A
$GPGGA,130758.000,4929.9452,N,00546.6803,E,1,8,1.38,391.4,M,47.6,M,,*5A
$GPGSA,A,3,08,04,22,02,14,03,01,17,,,,,1.65,1.38,0.89*04
$GPGS19,171,43,14,15,269,29*7A
$GPGGA,130759.000,4929.9453,N,00546.6804,E,1,8,1.38,391.0,M,47.6,M,,*59
$GPGSA,A,3,08,04,22,02,14,03,01,17,,,,,1.65,1.38,0.89*04
$GPGS19,171,44,14,15,269,28*7C
$GPGGA,130800.000,4929.9453,N,00546.6804,E,1,8,1.38,391.0,M,47.6,M,,*5A
$GPGSA,A,3,08,04,22,02,14,03,01,17,,,,,1.65,1.38,0.89*04
$GPGS19,171,44,14,15,269,27*7C
$GPGGA,130801.000,4929.9453,N,00546.6804,E,1,8,1.38,391.0,M,47.6,M,,*5B
$GPGSA,A,3,08,04,22,02,14,03,01,17,,,,,1.65,1.38,0.89*04
$GPGS092,21,19,07,321,19*7B
$GPGGA,130802.000,4929.9453,N,00546.6804,E,1,8,1.38,391.0,M,47.6,M,,*58
$GPGSA,A,3,08,04,22,02,14,03,01,17,,,,,1.65,1.38,0.89*04
$GPGS19,171,44,14,15,269,26*72
$GPGGA,130803.000,4929.9453,N,00546.6804,E,1,8,1.38,391.0,M,47.6,M,,*59
$GPGSA,A,3,08,04,22,02,14,03,01,17,,,,,1.65,1.38,0.89*04
$GPGS19,171,44,14,15,269,26*72
$GPGGA,130804.000,4929.9453,N,00546.6804,E,1,8,1.39,391.0,M,47.6,M,,*5F
$GPGSA,A,3,08,04,22,02,14,03,01,17,,,,,1.65,1.39,0.89*05
$GPGS092,21,19,07,321,19*7B
$GPGGA,130805.000,4929.9453,N,00546.6804,E,1,8,1.38,391.0,M,47.6,M,,*5F
$GPGSA,A,3,08,04,22,02,14,03,01,17,,,,,1.65,1.38,0.89*04
$GPGS,19,171,44,14,15,269,25*71
$GPGGA,130806.000,4929.9453,N,00546.6804,E,1,8,1.38,391.0,M,47.6,M,,*5C
$GPGSA,A,3,08,04,22,02,14,03,01,17,,,,,1.65,1.38,0.89*04
$GPGS,19,171,44,14,15,269,26*72
$GPGGA,130807.000,4929.9453,N,00546.6804,E,1,8,1.38,391.0,M,47.6,M,,*5D
$GPGSA,A,3,08,04,22,02,14,03,01,17,,,,,1.65,1.38,0.89*04
$GPGS092,19,19,07,321,19*70
$GPGGA,130808.000,4929.9453,N,00546.6804,E,1,8,1.38,391.0,M,47.6,M,,*52
$GPGSA,A,3,08,04,22,02,14,03,01,17,,,,,1.65,1.38,0.89*04
$GPGS19,171,45,14,15,269,26*72
$GPGGA,130809.000,4929.9453,N,00546.6804,E,1,8,1.38,391.0,M,47.6,M,,*53
$GPGSA,A,3,08,04,22,02,14,03,01,17,,,,,1.65,1.38,0.89*04
$GPGS19,171,45,14,15,269,26*72
$GPGGA,130810.000,4929.9453,N,00546.6804,E,1,8,1.91,391.0,M,47.6,M,,*58
$GPGSA,A,3,08,04,22,02,14,03,01,17,,,,,2.76,1.91,1.98*07
$GPGS,19,171,45,14,15,269,26*72
$GPGGA,130811.000,4929.9453,N,00546.6804,E,1,8,1.38,391.0,M,47.6,M,,*5A
$GPGSA,A,3,08,04,22,02,14,03,01,17,,,,,1.65,1.38,0.89*04
$GPGS19,171,45,14,15,269,25*71
$GPGGA,130812.000,4929.9453,N,00546.6804,E,1,8,1.39,391.0,M,47.6,M,,*58
$GPGSA,A,3,08,04,22,02,14,03,01,17,,,,,1.65,1.39,0.89*05
$GPGS269,25*72
$GPGGA,130813.000,4929.9453,N,00546.6804,E,1,8,1.38,391.0,M,47.6,M,,*58
$GPGSA,A,3,08,04,22,02,14,03,01,17,,,,,1.65,1.38,0.89*04
$GPGS19,171,45,14,15,269,27*70
$GPGGA,130814.000,4929.9453,N,00546.6804,E,1,8,1.39,391.0,M,47.6,M,,*5E
$GPGSA,A,3,08,04,22,02,14,03,01,17,,,,,1.65,1.39,0.89*05
$GPGS19,171,45,14,15,269,24*73
$GPGGA,130815.000,4929.9453,N,00546.6804,E,1,8,1.38,391.0,M,47.6,M,,*5E
$GPGSA,A,3,08,04,22,02,14,03,01,17,,,,,1.65,1.38,0.89*04
$GPGS,19,171,45,14,15,269,24*73
$GPGGA,130816.000,4929.9453,N,00546.6804,E,1,8,1.38,391.0,M,47.6,M,,*5D
$GPGSA,A,3,08,04,22,02,14,03,01,17,,,,,1.65,1.38,0.89*04
$GPGS19,171,45,14,15,269,24*73
$GPGGA,130817.000,4929.9453,N,00546.6804,E,1,8,1.38,391.0,M,47.6,M,,*5C
$GPGSA,A,3,08,04,22,02,14,03,01,17,,,,,1.65,1.38,0.89*04
$GPGS19,171,45,14,15,269,24*73
$GPGGA,130818.000,4929.9453,N,00546.6804,E,1,8,1.38,391.0,M,47.6,M,,*53
$GPGSA,A,3,08,04,22,02,14,03,01,17,,,,,1.65,1.38,0.89*04
$GPGS19,171,45,14,15,269,23*74
$GPGGA,130819.000,4929.9453,N,00546.6804,E,1,8,1.39,391.0,M,47.6,M,,*53
$GPGSA,A,3,08,04,22,02,14,03,01,17,,,,,1.65,1.39,0.89*05
$GPGS19,171,46,14,15,269,23*77
$GPGGA,130820.000,4929.9453,N,00546.6804,E,1,8,1.39,391.0,M,47.6,M,,*59
$GPGSA,A,3,08,04,22,02,14,03,01,17,,,,,1.65,1.39,0.89*05
$GPGS092,21,19,07,321,20*72
$GPGGA,130821.000,4929.9453,N,00546.6804,E,1,8,1.38,391.0,M,47.6,M,,*59
$GPGSA,A,3,08,04,22,02,14,03,01,17,,,,,1.65,1.38,0.89*04
$GPGS19,171,46,14,15,269,23*77
$GPGGA,130822.000,4929.9453,N,00546.6804,E,1,8,1.38,391.0,M,47.6,M,,*5A
$GPGSA,A,3,08,04,22,02,14,03,01,17,,,,,1.65,1.38,0.89*04
$GPGS,19,171,46,14,15,269,24*70
$GPGGA,130823.000,4929.9453,N,00546.6804,E,1,7,1.42,391.0,M,47.6,M,,*59
$GPGSA,A,3,08,04,02,14,03,01,17,,,,,,1.68,1.42,0.90*0C
$GPGSV,2,23,19,07,321,20*70
$GPGGA,130824.000,4929.9453,N,00546.6804,E,1,7,1.42,391.0,M,47.6,M,,*5E
$GPGSA,A,3,08,04,02,14,03,01,17,,,,,,1.68,1.42,0.90*0C
$GPGSV,,171,46,14,15,269,22*70
$GPGGA,130825.000,4929.9453,N,00546.6804,E,1,7,1.42,391.0,M,47.6,M,,*5F
$GPGSA,A,3,08,04,02,14,03,01,17,,,,,,1.68,1.42,0.90*0C
$GPGSV,,171,46,14,15,269,21*72
$GPGGA,130826.000,4929.9453,N,00546.6804,E,1,7,1.98,391.0,M,47.6,M,,*5B
$GPGSA,A,3,08,04,02,14,03,01,17,,,,,,2.89,1.98,2.10*0D
$GPGSV,1,23,19,07,321,21*72
$GPGGA,130827.000,4929.9453,N,00546.6804,E,1,8,1.39,391.0,M,47.6,M,,*5E
$GPGSA,A,3,08,04,22,02,14,03,01,17,,,,,1.65,1.39,0.89*05
$GPGS19,171,46,14,15,269,21*73
$GPGGA,130828.000,4929.9453,N,00546.6804,E,1,8,1.39,391.0,M,47.6,M,,*51
$GPGSA,A,3,08,04,22,02,14,03,01,17,,,,,1.65,1.39,0.89*05
$GPGS,19,171,46,14,15,269,19*7E
$GPGGA,130829.000,4929.9453,N,00546.6804,E,1,7,1.42,391.0,M,47.6,M,,*53
$GPGSA,A,3,08,04,02,14,03,01,17,,,,,,1.68,1.42,0.90*0C
$GPGSV,,171,46,14,15,269,19*7A
$GPGGA,130830.000,4929.9453,N,00546.6804,E,1,7,1.42,391.0,M,47.6,M,,*5B
$GPGSA,A,3,08,04,02,14,03,01,17,,,,,,1.68,1.42,0.90*0C
$GPGSV,,171,46,14,15,269,17*74
$GPGGA,130831.000,4929.9453,N,00546.6804,E,1,8,1.39,391.0,M,47.6,M,,*59
$GPGSA,A,3,08,04,22,02,14,03,01,17,,,,,1.65,1.39,0.89*05
$GPGS,19,171,46,14,15,269,16*70
$GPGGA,130832.000,4929.9453,N,00546.6804,E,1,7,1.42,391.0,M,47.6,M,,*59
$GPGSA,A,3,08,04,02,14,03,01,17,,,,,,1.68,1.42,0.90*0C
$GPGSV,9,171,46,14,15,269,17*74
$GPGGA,130833.000,4929.9453,N,00546.6804,E,1,7,1.98,391.0,M,47.6,M,,*5F
$GPGSA,A,3,08,04,02,14,03,01,17,,,,,,2.89,1.98,2.11*0C
$GPGSV,9,171,46,14,15,269,19*7A
$GPGGA,130834.000,4929.9453,N,00546.6804,E,1,7,1.98,391.0,M,47.6,M,,*58
$GPGSA,A,3,08,04,02,14,03,01,17,,,,,,2.89,1.98,2.11*0C
$GPGSV,,171,46,14,15,269,17*77
$GPGGA,130835.000,4929.9453,N,00546.6804,E,1,7,1.42,391.0,M,47.6,M,,*5E
$GPGSA,A,3,08,04,02,14,03,01,17,,,,,,1.68,1.42,0.90*0C
$GPGSV,71,46,14,15,269,20*73
$GPGGA,130836.000,4929.9453,N,00546.6804,E,1,7,1.42,391.0,M,47.6,M,,*5D
$GPGSA,A,3,08,04,02,14,03,01,17,,,,,,1.68,1.42,0.90*0C
$GPGSV,71,47,14,15,269,20*72
$GPGGA,130837.000,4929.9453,N,00546.6804,E,1,7,1.42,391.0,M,47.6,M,,*5C
$GPGSA,A,3,08,04,02,14,03,01,17,,,,,,1.68,1.42,0.90*0C
$GPGSV,71,47,14,15,269,19*78
$GPGGA,130838.000,4929.9453,N,00546.6804,E,1,7,1.42,391.0,M,47.6,M,,*53
$GPGSA,A,3,08,04,02,14,03,01,17,,,,,,1.68,1.42,0.90*0C
$GPGSV,71,47,14,15,269,20*72
$GPGGA,130839.000,4929.9453,N,00546.6804,E,1,7,1.42,391.0,M,47.6,M,,*52
$GPGSA,A,3,08,04,02,14,03,01,17,,,,,,1.68,1.42,0.90*0C
$GPGSV,17,19,07,321,22*77
$GPGGA,130840.000,4929.9453,N,00546.6804,E,1,7,1.42,391.0,M,47.6,M,,*5C
$GPGSA,A,3,08,04,02,14,03,01,17,,,,,,1.68,1.42,0.90*0C
$GPGSV,,171,47,14,15,269,24*71
$GPGGA,130841.000,4929.9453,N,00546.6804,E,1,7,1.42,391.0,M,47.6,M,,*5D
$GPGSA,A,3,08,04,02,14,03,01,17,,,,,,1.68,1.42,0.90*0C
$GPGSV,,171,47,14,15,269,23*7B
$GPGGA,130842.000,4929.9453,N,00546.6804,E,1,7,1.42,391.0,M,47.6,M,,*5E
$GPGSA,A,3,08,04,02,14,03,01,17,,,,,,1.68,1.42,0.90*0C
$GPGSV,1,16,19,07,321,22*76
$GPGGA,130843.000,4929.9453,N,00546.6804,E,1,6,1.49,391.0,M,47.6,M,,*55
$GPGSA,A,3,08,04,02,14,03,17,,,,,,,1.75,1.49,0.91*0B
$GPGSV,3,7,14,15,269,25*77
$GPGGA,130844.000,4929.9453,N,00546.6804,E,1,6,1.49,391.0,M,47.6,M,,*52
$GPGSA,A,3,08,04,02,14,03,17,,,,,,,1.75,1.49,0.91*0B
$GPGSV,3,,47,14,15,269,27*7F
$GPGGA,130845.000,4929.9453,N,00546.6804,E,1,6,1.49,391.0,M,47.6,M,,*53
$GPGSA,A,3,08,04,02,14,03,17,,,,,,,1.75,1.49,0.91*0B
$GPGSV,3,1,47,14,15,269,26*7E
$GPGGA,130846.000,4929.9453,N,00546.6804,E,1,6,1.49,391.0,M,47.6,M,,*50
$GPGSA,A,3,08,04,02,14,03,17,,,,,,,1.75,1.49,0.91*0B
$GPGSV,3,,47,14,15,269,29*7E
$GPGGA,130847.000,4929.9453,N,00546.6804,E,1,7,1.42,391.0,M,47.6,M,,*5B
$GPGSA,A,3,08,04,01,02,14,03,17,,,,,,1.68,1.42,0.90*0C
$GPGSV,9,171,47,14,15,269,30*79
$GPGGA,130848.000,4929.9453,N,00546.6804,E,1,7,1.42,391.0,M,47.6,M,,*54
$GPGSA,A,3,08,04,01,02,14,03,17,,,,,,1.68,1.42,0.90*0C
$GPGSV,,171,47,14,15,269,29*71
$GPGGA,130849.000,4929.9453,N,00546.6804,E,1,7,1.42,391.0,M,47.6,M,,*55
$GPGSA,A,3,08,04,01,02,14,03,17,,,,,,1.68,1.42,0.90*0C
$GPGSV,,171,47,14,15,269,29*71
$GPGGA,130850.000,4929.9453,N,00546.6804,E,1,7,1.42,391.0,M,47.6,M,,*5D
$GPGSA,A,3,08,04,01,02,14,03,17,,,,,,1.68,1.42,0.90*0C
$GPGSV,,171,47,14,15,269,29*7E
$GPGGA,130851.000,4929.9453,N,00546.6804,E,1,7,1.42,391.0,M,47.6,M,,*5C
$GPGSA,A,3,08,04,01,02,14,03,17,,,,,,1.68,1.42,0.90*0C
$GPGSV,9,171,47,14,15,269,29*7E
$GPGGA,130852.000,4929.9453,N,00546.6804,E,1,7,1.42,391.0,M,47.6,M,,*5F
$GPGSA,A,3,08,04,01,02,14,03,17,,,,,,1.68,1.42,0.90*0C
$GPGSV,,171,47,14,15,269,29*7E
$GPGGA,130853.000,4929.9453,N,00546.6804,E,1,7,1.42,391.0,M,47.6,M,,*5E
$GPGSA,A,3,08,04,01,02,14,03,17,,,,,,1.68,1.42,0.90*0C
$GPGSV,,171,47,14,15,269,29*7E
$GPGGA,130854.000,4929.9453,N,00546.6804,E,1,7,1.42,391.0,M,47.6,M,,*59
$GPGSA,A,3,08,04,01,02,14,03,17,,,,,,1.68,1.42,0.90*0C
$GPGSV,9,171,47,14,15,269,30*76
$GPGGA,130855.000,4929.9453,N,00546.6804,E,1,7,1.42,391.0,M,47.6,M,,*58
$GPGSA,A,3,08,04,01,02,14,03,17,,,,,,1.68,1.42,0.90*0C
$GPGSV,,18,19,08,321,23*79
$GPGGA,130856.000,4929.9453,N,00546.6804,E,1,7,1.42,391.0,M,47.6,M,,*5B
$GPGSA,A,3,08,04,01,02,14,03,17,,,,,,1.68,1.42,0.90*0C
$GPGSV,9,171,47,14,15,269,30*76
$GPGGA,130857.000,4929.9453,N,00546.6804,E,1,7,1.42,391.0,M,47.6,M,,*5A
$GPGSA,A,3,08,04,01,02,14,03,17,,,,,,1.68,1.42,0.90*0C
$GPGSV,,171,47,14,15,269,30*76
$GPGGA,130858.000,4929.9453,N,00546.6804,E,1,8,1.39,391.0,M,47.6,M,,*56
$GPGSA,A,3,08,04,01,02,14,03,17,22,,,,,1.65,1.39,0.89*05
$GPGS,091,19,19,08,321,23*78
$GPGGA,130859.000,4929.9453,N,00546.6804,E,1,7,1.42,391.0,M,47.6,M,,*54
$GPGSA,A,3,08,04,01,02,14,03,17,,,,,,1.68,1.42,0.90*0C
$GPGSV,19,171,47,14,15,269,31*77
$GPGGA,130900.000,4929.9453,N,00546.6804,E,1,8,1.39,391.0,M,47.6,M,,*5A
$GPGSA,A,3,08,04,01,02,14,03,17,22,,,,,1.65,1.39,0.89*05
$GPGS8,19,171,47,14,15,269,31*71
$GPGGA,130901.000,4929.9453,N,00546.6804,E,1,7,1.99,391.0,M,47.6,M,,*5E
$GPGSA,A,3,08,04,01,02,14,03,17,,,,,,2.90,1.99,2.12*06
$GPGSV,19,171,47,40,18,122,37*71
$GPGGA,130902.000,4929.9453,N,00546.6804,E,1,7,1.42,391.0,M,47.6,M,,*5B
$GPGSA,A,3,08,04,01,02,14,03,17,,,,,,1.68,1.42,0.90*0C
$GPGSV,9,171,47,40,18,122,37*70
$GPGGA,130903.000,4929.9453,N,00546.6804,E,1,7,1.99,391.0,M,47.6,M,,*5C
$GPGSA,A,3,08,04,01,02,14,03,17,,,,,,2.90,1.99,2.12*06
$GPGSV,9,171,47,40,18,122,37*70
$GPGGA,130904.000,4929.9453,N,00546.6804,E,1,7,1.42,391.0,M,47.6,M,,*5D
$GPGSA,A,3,08,04,01,02,14,03,17,,,,,,1.68,1.42,0.90*0C
$GPGSV,9,171,47,40,18,122,37*70
$GPGGA,130905.000,4929.9453,N,00546.6804,E,1,7,1.42,391.0,M,47.6,M,,*5C
$GPGSA,A,3,08,04,01,02,14,03,17,,,,,,1.68,1.42,0.90*0C
$GPGSV,,171,47,40,18,122,38*7F
$GPGGA,130906.000,4929.9453,N,00546.6804,E,1,7,1.42,391.0,M,47.6,M,,*5F
$GPGSA,A,3,08,04,01,02,14,03,17,,,,,,1.68,1.42,0.90*0C
$GPGSV,9,171,47,40,18,122,38*7E
$GPGGA,130907.000,4929.9453,N,00546.6804,E,1,7,1.99,391.0,M,47.6,M,,*58
$GPGSA,A,3,08,04,01,02,14,03,17,,,,,,2.90,1.99,2.12*06
$GPGSV,,171,47,40,18,122,38*7E
$GPGGA,130908.000,4929.9453,N,00546.6804,E,1,7,1.42,391.0,M,47.6,M,,*51
$GPGSA,A,3,08,04,01,02,14,03,17,,,,,,1.68,1.42,0.90*0C
$GPGSV,,171,47,40,18,122,38*7E
$GPGGA,130909.000,4929.9453,N,00546.6804,E,1,7,1.42,391.0,M,47.6,M,,*50
$GPGSA,A,3,08,04,01,02,14,03,17,,,,,,1.68,1.42,0.90*0C
$GPGSV,,171,47,40,18,122,38*7F
$GPGGA,130910.000,4929.9453,N,00546.6804,E,1,7,1.42,391.0,M,47.6,M,,*58
$GPGSA,A,3,08,04,01,02,14,03,17,,,,,,1.68,1.42,0.90*0C
$GPGSV,,171,47,40,18,122,38*7C
$GPGGA,130911.000,4929.9453,N,00546.6804,E,1,7,1.42,391.0,M,47.6,M,,*59
$GPGSA,A,3,08,04,01,02,14,03,17,,,,,,1.68,1.42,0.90*0C
$GPGSV,,171,47,40,18,122,38*7C
$GPGGA,130912.000,4929.9453,N,00546.6804,E,1,7,1.42,391.0,M,47.6,M,,*5A
$GPGSA,A,3,08,04,01,02,14,03,17,,,,,,1.68,1.42,0.90*0C
$GPGSV,9,171,47,40,18,122,38*7C
$GPGGA,130913.000,4929.9453,N,00546.6804,E,1,7,1.42,391.0,M,47.6,M,,*5B
$GPGSA,A,3,08,04,01,02,14,03,17,,,,,,1.68,1.42,0.90*0C
$GPGSV,,171,47,40,18,122,38*7C
$GPGGA,130914.000,4929.9453,N,00546.6804,E,1,7,1.42,391.0,M,47.6,M,,*5C
$GPGSA,A,3,08,04,01,02,14,03,17,,,,,,1.68,1.42,0.90*0C
$GPGSV,1,23,19,08,321,24*74
$GPGGA,130915.000,4929.9453,N,00546.6804,E,1,7,1.42,391.0,M,47.6,M,,*5D
$GPGSA,A,3,08,04,01,02,14,03,17,,,,,,1.68,1.42,0.90*0C
$GPGSV,9,171,47,40,18,122,38*7F
$GPGGA,130916.000,4929.9453,N,00546.6804,E,1,7,1.42,391.0,M,47.6,M,,*5E
$GPGSA,A,3,08,04,01,02,14,03,17,,,,,,1.68,1.42,0.90*0C
$GPGSV,9,171,47,40,18,122,38*7F
$GPGGA,130917.000,4929.9453,N,00546.6804,E,1,8,1.93,391.0,M,47.6,M,,*5C
$GPGSA,A,3,08,04,01,02,14,03,17,22,,,,,2.78,1.93,2.00*09
$GPGS8,091,25,19,08,321,24*72
$GPGGA,130918.000,4929.9453,N,00546.6804,E,1,8,1.93,391.0,M,47.6,M,,*53
$GPGSA,A,3,08,04,01,02,14,03,17,22,,,,,2.78,1.93,2.00*09
$GPGS8,19,171,47,40,18,122,38*79
$GPGGA,130919.000,4929.9453,N,00546.6804,E,1,8,1.39,391.0,M,47.6,M,,*52
$GPGSA,A,3,08,04,01,02,14,03,17,22,,,,,1.65,1.39,0.89*05
$GPGS08,19,171,47,40,18,122,38*7E
$GPGGA,130920.000,4929.9453,N,00546.6804,E,1,8,1.93,391.0,M,47.6,M,,*58
$GPGSA,A,3,08,04,01,02,14,03,17,22,,,,,2.78,1.93,2.00*09
$GPGS08,19,171,47,40,18,122,38*7F
$GPGSV,3,3,12,14,15,269,30,067
$GPGGA,130921.000,4929.9453,N,00546.6804,E,1,8,1.39,391.0,M,47.6,M,,*59
$GPGSA,A,3,08,04,01,02,14,03,17,22,,,,,1.65,1.39,0.89*05
$GPGS8,19,171,47,40,18,122,38*76
$GPGGA,130922.000,4929.9453,N,00546.6804,E,1,8,1.39,391.0,M,47.6,M,,*5A
$GPGSA,A,3,08,04,01,02,14,03,17,22,,,,,1.65,1.39,0.89*05
$GPGS8,19,171,47,40,18,122,38*76
$GPGGA,130923.000,4929.9453,N,00546.6804,E,1,7,1.42,391.0,M,47.6,M,,*58
$GPGSA,A,3,08,04,01,02,14,03,17,,,,,,1.68,1.42,0.90*0C
$GPGSV,091,23,19,08,321,24*7D
$GPGGA,130924.000,4929.9453,N,00546.6804,E,1,8,1.93,391.0,M,47.6,M,,*5C
$GPGSA,A,3,08,04,01,02,14,03,17,22,,,,,2.78,1.93,2.00*09
$GPGS08,19,171,47,40,18,122,38*79
$GPGGA,130925.000,4929.9453,N,00546.6804,E,1,8,1.93,391.0,M,47.6,M,,*5D
$GPGSA,A,3,08,04,01,02,14,03,17,22,,,,,2.78,1.93,2.00*09
$GPGS8,19,171,47,40,18,122,38*71
$GPGGA,130926.000,4929.9453,N,00546.6804,E,1,8,1.93,391.0,M,47.6,M,,*5E
$GPGSA,A,3,08,04,01,02,14,03,17,22,,,,,2.78,1.93,2.00*09
$GPGS08,19,171,47,40,18,122,38*79
$GPGGA,130927.000,4929.9453,N,00546.6804,E,1,8,1.39,391.0,M,47.6,M,,*5F
$GPGSA,A,3,08,04,01,02,14,03,17,22,,,,,1.65,1.39,0.89*05
$GPGS8,19,171,47,40,18,122,38*73
$GPGGA,130928.000,4929.9453,N,00546.6804,E,1,8,1.39,391.0,M,47.6,M,,*50
$GPGSA,A,3,08,04,01,02,14,03,17,22,,,,,1.65,1.39,0.89*05
$GPGS08,19,171,47,40,18,122,38*7C
$GPGGA,130929.000,4929.9453,N,00546.6804,E,1,8,1.39,391.0,M,47.6,M,,*51
$GPGSA,A,3,08,04,01,02,14,03,17,22,,,,,1.65,1.39,0.89*05
$GPGS8,19,171,47,40,18,122,38*7D
$GPGGA,130930.000,4929.9453,N,00546.6804,E,1,8,1.39,391.0,M,47.6,M,,*59
$GPGSA,A,3,08,04,01,02,14,03,17,22,,,,,1.65,1.39,0.89*05
$GPGS08,19,171,47,40,18,122,38*7D
$GPGGA,130931.000,4929.9453,N,00546.6804,E,1,9,0.96,391.0,M,47.6,M,,*5D
$GPGSA,A,3,08,04,01,02,14,03,17,28,22,,,,1.22,0.96,0.75*0B
$GP0,08,19,171,47,40,18,122,38*7D
$GPGGA,130932.000,4929.9453,N,00546.6804,E,1,9,0.96,391.0,M,47.6,M,,*5E
$GPGSA,A,3,08,04,01,02,14,03,17,28,22,,,,1.22,0.96,0.75*0B
$GP,08,19,171,47,40,18,122,38*7E
$GPGGA,130933.000,4929.9453,N,00546.6804,E,1,9,0.96,391.0,M,47.6,M,,*5F
$GPGSA,A,3,08,04,01,02,14,03,17,28,22,,,,1.22,0.96,0.75*0B
$GP,08,19,171,47,40,18,122,38*7E
$GPGGA,130934.000,4929.9453,N,00546.6804,E,1,9,0.99,391.0,M,47.6,M,,*57
$GPGSA,A,3,08,04,01,02,14,03,17,28,22,,,,1.50,0.99,1.13*00
$GP0,08,19,171,47,40,18,122,38*7E
$GPGGA,130935.000,4929.9453,N,00546.6804,E,1,9,0.99,391.0,M,47.6,M,,*56
$GPGSA,A,3,08,04,01,02,14,03,17,28,22,,,,1.50,0.99,1.13*00
$GP,08,19,171,47,40,18,122,38*7E
$GPGGA,130936.000,4929.9453,N,00546.6804,E,1,9,0.99,391.0,M,47.6,M,,*55
$GPGSA,A,3,08,04,01,02,14,03,17,28,22,,,,1.50,0.99,1.13*00
$GP,08,19,171,47,40,18,122,38*7E
$GPGGA,130937.000,4929.9453,N,00546.6804,E,1,9,0.96,391.0,M,47.6,M,,*5B
$GPGSA,A,3,08,04,01,02,14,03,17,28,22,,,,1.22,0.96,0.75*0B
$GP1,08,19,171,47,40,18,122,38*7F
$GPGGA,130938.000,4929.9453,N,00546.6804,E,1,9,0.96,391.0,M,47.6,M,,*54
$GPGSA,A,3,08,04,01,02,14,03,17,28,22,,,,1.22,0.96,0.75*0B
$GP,08,19,171,47,40,18,122,38*7F
$GPGGA,130939.000,4929.9453,N,00546.6804,E,1,9,0.96,391.0,M,47.6,M,,*55
$GPGSA,A,3,08,04,01,02,14,03,17,28,22,,,,1.22,0.96,0.75*0B
$GP,08,19,171,47,40,18,122,38*7E
$GPGGA,130940.000,4929.9453,N,00546.6804,E,1,9,0.96,391.0,M,47.6,M,,*5B
$GPGSA,A,3,08,04,01,02,14,03,17,28,22,,,,1.22,0.96,0.75*0B
$GP,08,19,171,47,40,18,122,38*78
$GPGGA,130941.000,4929.9453,N,00546.6804,E,1,9,0.96,391.0,M,47.6,M,,*5A
$GPGSA,A,3,08,04,01,02,14,03,17,28,22,,,,1.22,0.96,0.75*0B
$GP5,08,19,171,47,40,18,122,38*76
$GPGGA,130942.000,4929.9453,N,00546.6804,E,1,9,0.96,391.0,M,47.6,M,,*59
$GPGSA,A,3,08,04,01,02,14,03,17,28,22,,,,1.22,0.96,0.75*0B
$GP,08,19,171,46,40,18,122,38*77
$GPGGA,130943.000,4929.9453,N,00546.6804,E,1,9,0.96,391.0,M,47.6,M,,*58
$GPGSA,A,3,08,04,01,02,14,03,17,28,22,,,,1.22,0.96,0.75*0B
$GP4,08,19,171,46,40,18,122,38*79
$GPGGA,130944.000,4929.9453,N,00546.6804,E,1,9,0.96,391.0,M,47.6,M,,*5F
$GPGSA,A,3,08,04,01,02,14,03,17,28,22,,,,1.22,0.96,0.75*0B
$GP4,08,19,171,46,40,18,122,38*78
$GPGGA,130945.000,4929.9453,N,00546.6804,E,1,9,0.96,391.0,M,47.6,M,,*5E
$GPGSA,A,3,08,04,01,02,14,03,17,28,22,,,,1.22,0.96,0.75*0B
$GP4,08,19,171,46,40,18,122,38*7B
$GPGGA,130946.000,4929.9453,N,00546.6804,E,1,9,0.96,391.0,M,47.6,M,,*5D
$GPGSA,A,3,08,04,01,02,14,03,17,28,22,,,,1.22,0.96,0.75*0B
$GP,08,19,171,46,40,18,122,38*7A
$GPGGA,130947.000,4929.9453,N,00546.6804,E,1,9,0.96,391.0,M,47.6,M,,*5C
$GPGSA,A,3,08,04,01,02,14,03,17,28,22,,,,1.22,0.96,0.75*0B
$GP,08,19,171,46,40,18,122,38*7A
$GPGGA,130948.000,4929.9453,N,00546.6804,E,1,9,0.96,391.0,M,47.6,M,,*53
$GPGSA,A,3,08,04,01,02,14,03,17,28,22,,,,1.22,0.96,0.75*0B
$GP,08,19,171,46,40,18,122,38*7A
$GPGGA,130949.000,4929.9453,N,00546.6804,E,1,9,0.96,391.0,M,47.6,M,,*52
$GPGSA,A,3,08,04,01,02,14,03,17,28,22,,,,1.22,0.96,0.75*0B
$GP4,08,18,171,46,40,18,122,38*7A
$GPGGA,130950.000,4929.9453,N,00546.6804,E,1,9,0.99,391.0,M,47.6,M,,*55
$GPGSA,A,3,08,04,01,02,14,03,17,28,22,,,,1.50,0.99,1.13*00
$GP,08,18,171,46,40,18,122,38*78
$GPGGA,130951.000,4929.9453,N,00546.6804,E,1,9,0.97,391.0,M,47.6,M,,*5A
$GPGSA,A,3,08,04,01,02,14,03,17,28,22,,,,1.22,0.97,0.75*0A
$GP6,08,18,171,46,40,18,122,38*7B
$GPGGA,130952.000,4929.9453,N,00546.6804,E,1,9,0.99,391.0,M,47.6,M,,*57
$GPGSA,A,3,08,04,01,02,14,03,17,28,22,,,,1.50,0.99,1.13*00
$GP6,08,18,171,46,40,18,122,38*7B
$GPGGA,130953.000,4929.9453,N,00546.6804,E,1,9,0.96,391.0,M,47.6,M,,*59
$GPGSA,A,3,08,04,01,02,14,03,17,28,22,,,,1.22,0.96,0.75*0B
$GP6,08,18,171,46,40,18,122,38*7B
$GPGGA,130954.000,4929.9453,N,00546.6804,E,1,9,0.96,391.0,M,47.6,M,,*5E
$GPGSA,A,3,08,04,01,02,14,03,17,28,22,,,,1.22,0.96,0.75*0B
$GP,08,091,21,19,08,321,23*73
$GPGGA,130955.000,4929.9453,N,00546.6804,E,1,9,0.96,391.0,M,47.6,M,,*5F
$GPGSA,A,3,08,04,01,02,14,03,17,28,22,,,,1.22,0.96,0.75*0B
$GP,08,18,171,46,40,18,122,38*7B
$GPGGA,130956.000,4929.9453,N,00546.6804,E,1,9,0.96,391.0,M,47.6,M,,*5C
$GPGSA,A,3,08,04,01,02,14,03,17,28,22,,,,1.22,0.96,0.75*0B
$GP,08,18,171,46,40,18,122,38*7B
$GPGGA,130957.000,4929.9453,N,00546.6804,E,1,9,0.96,391.0,M,47.6,M,,*5D
$GPGSA,A,3,08,04,01,02,14,03,17,28,22,,,,1.22,0.96,0.75*0B
$GP,08,091,19,19,08,321,23*78
$GPGGA,130958.000,4929.9453,N,00546.6804,E,1,9,0.96,391.0,M,47.6,M,,*52
$GPGSA,A,3,08,04,01,02,14,03,17,28,22,,,,1.22,0.96,0.75*0B
$GP,08,18,171,46,40,18,122,38*7D
$GPGGA,130959.000,4929.9453,N,00546.6804,E,1,9,0.99,391.0,M,47.6,M,,*5C
$GPGSA,A,3,08,04,01,02,14,03,17,28,22,,,,1.50,0.99,1.13*00
$GP5,08,18,171,46,40,18,122,38*7C
$GPGGA,131000.000,4929.9453,N,00546.6804,E,1,9,0.96,391.0,M,47.6,M,,*57
$GPGSA,A,3,08,04,01,02,14,03,17,28,22,,,,1.22,0.96,0.75*0B
$GP,08,091,16,19,08,321,23*77
$GPGGA,131001.000,4929.9453,N,00546.6804,E,1,9,0.96,391.0,M,47.6,M,,*56
$GPGSA,A,3,08,04,01,02,14,03,17,28,22,,,,1.22,0.96,0.75*0B
$GP,08,18,171,46,40,18,122,38*7E
$GPGGA,131002.000,4929.9453,N,00546.6804,E,1,9,0.96,391.0,M,47.6,M,,*55
$GPGSA,A,3,08,04,01,02,14,03,17,28,22,,,,1.22,0.96,0.75*0B
$GP5,08,18,171,46,40,18,122,38*7E
$GPGGA,131003.000,4929.9453,N,00546.6804,E,1,9,0.99,391.0,M,47.6,M,,*5B
$GPGSA,A,3,08,04,01,02,14,03,17,28,22,,,,1.50,0.99,1.13*00
$GP,08,091,14,19,08,321,23*7B
$GPGGA,131004.000,4929.9453,N,00546.6804,E,1,9,0.96,391.0,M,47.6,M,,*53
$GPGSA,A,3,08,04,01,02,14,03,17,28,22,,,,1.22,0.96,0.75*0B
$GP,08,18,171,46,40,18,122,38*75
$GPGGA,131005.000,4929.9453,N,00546.6804,E,1,9,0.99,391.0,M,47.6,M,,*5D
$GPGSA,A,3,08,04,01,02,14,03,17,28,22,,,,1.50,0.99,1.13*00
$GP,08,18,171,46,40,18,122,38*7A
$GPGGA,131006.000,4929.9453,N,00546.6804,E,1,9,0.99,391.0,M,47.6,M,,*5E
$GPGSA,A,3,08,04,01,02,14,03,17,28,22,,,,1.50,0.99,1.13*00
$GP,08,091,12,19,08,321,22*7D
$GPGGA,131007.000,4929.9453,N,00546.6804,E,1,9,0.96,391.0,M,47.6,M,,*50
$GPGSA,A,3,08,04,01,02,14,03,17,28,22,,,,1.22,0.96,0.75*0B
$GP4,08,18,171,46,40,18,122,38*7A
$GPGGA,131008.000,4929.9453,N,00546.6804,E,1,9,0.96,391.0,M,47.6,M,,*5F
$GPGSA,A,3,08,04,01,02,14,03,17,28,22,,,,1.22,0.96,0.75*0B
$GP,08,18,171,46,40,18,122,38*7A
$GPGGA,131009.000,4929.9453,N,00546.6804,E,1,9,0.96,391.0,M,47.6,M,,*5E
$GPGSA,A,3,08,04,01,02,14,03,17,28,22,,,,1.22,0.96,0.75*0B
$GP,08,18,171,46,40,18,122,38*79
$GPGSV,3,3,12,14,14,269,24,04*64
$GPGGA,131010.000,4929.9453,N,00546.6804,E,1,9,0.96,391.0,M,47.6,M,,*56
$GPGSA,A,3,08,04,01,02,14,03,17,28,22,,,,1.22,0.96,0.75*0B
$GP4,08,18,171,46,40,18,122,38*79
$GPGGA,131011.000,4929.9453,N,00546.6804,E,1,9,0.96,391.0,M,47.6,M,,*57
$GPGSA,A,3,08,04,01,02,14,03,17,28,22,,,,1.22,0.96,0.75*0B
$GP4,08,18,171,46,40,18,122,38*79
$GPGGA,131012.000,4929.9453,N,00546.6804,E,1,9,0.96,391.0,M,47.6,M,,*54
$GPGSA,A,3,08,04,01,02,14,03,17,28,22,,,,1.22,0.96,0.75*0B
$GP,08,091,17,19,08,321,23*7C
$GPGGA,131013.000,4929.9453,N,00546.6804,E,1,9,0.96,391.0,M,47.6,M,,*55
$GPGSA,A,3,08,04,01,02,14,03,17,28,22,,,,1.22,0.96,0.75*0B
$GP2,08,18,171,46,40,18,122,38*7F
$GPGGA,131014.000,4929.9453,N,00546.6804,E,1,9,0.99,391.0,M,47.6,M,,*5D
$GPGSA,A,3,08,04,01,02,14,03,17,28,22,,,,1.50,0.99,1.13*00
$GP1,08,18,171,46,40,18,122,38*7C
$GPGGA,131015.000,4929.9453,N,00546.6804,E,1,9,0.99,391.0,M,47.6,M,,*5C
$GPGSA,A,3,08,04,01,02,14,03,17,28,22,,,,1.50,0.99,1.13*00
$GP,08,091,16,19,08,321,23*7D
$GPGGA,131016.000,4929.9453,N,00546.6804,E,1,9,0.96,391.0,M,47.6,M,,*50
$GPGSA,A,3,08,04,01,02,14,03,17,28,22,,,,1.22,0.96,0.75*0B
$GP,08,18,171,46,40,18,122,38*7D
$GPGGA,131017.000,4929.9453,N,00546.6804,E,1,9,0.96,391.0,M,47.6,M,,*51
$GPGSA,A,3,08,04,01,02,14,03,17,28,22,,,,1.22,0.96,0.75*0B
$GP0,08,18,171,46,40,18,122,38*7E
$GPGGA,131018.000,4929.9453,N,00546.6804,E,1,9,0.96,391.0,M,47.6,M,,*5E
$GPGSA,A,3,08,04,01,02,14,03,17,28,22,,,,1.22,0.96,0.75*0B
$GP0,08,18,171,46,40,18,122,38*7E
$GPGSV,3,3,12,14,14,269,23,0*64
$GPGGA,131019.000,4929.9453,N,00546.6804,E,1,9,0.96,391.0,M,47.6,M,,*5F
$GPGSA,A,3,08,04,01,02,14,03,17,28,22,,,,1.22,0.96,0.75*0B
$GP0,08,18,171,46,40,18,122,38*7E
$GPGGA,131020.000,4929.9453,N,00546.6804,E,1,9,0.96,391.0,M,47.6,M,,*55
$GPGSA,A,3,08,04,01,02,14,03,17,28,22,,,,1.22,0.96,0.75*0B
$GP,08,18,171,46,40,18,122,38*7E
$GPGGA,131021.000,4929.9453,N,00546.6804,E,1,9,0.97,391.0,M,47.6,M,,*55
$GPGSA,A,3,08,04,01,02,14,03,17,28,22,,,,1.22,0.97,0.75*0A
$GP,08,091,20,19,08,321,24*7C
$GPGGA,131022.000,4929.9453,N,00546.6804,E,1,9,0.96,391.0,M,47.6,M,,*57
$GPGSA,A,3,08,04,01,02,14,03,17,28,22,,,,1.22,0.96,0.75*0B
$GP,08,18,171,45,40,18,122,38*7E
$GPGGA,131023.000,4929.9453,N,00546.6804,E,1,9,0.96,391.0,M,47.6,M,,*56
$GPGSA,A,3,08,04,01,02,14,03,17,28,22,,,,1.22,0.96,0.75*0B
$GP,08,18,171,45,40,18,122,38*7D
$GPGGA,131024.000,4929.9453,N,00546.6804,E,1,9,0.99,391.0,M,47.6,M,,*5E
$GPGSA,A,3,08,04,01,02,14,03,17,28,22,,,,1.50,0.99,1.13*00
$GP8,08,091,21,19,08,321,24*7A
$GPGGA,131025.000,4929.9453,N,00546.6804,E,1,9,0.99,391.0,M,47.6,M,,*5F
$GPGSA,A,3,08,04,01,02,14,03,17,28,22,,,,1.50,0.99,1.13*00
$GP4,08,18,171,45,40,18,122,38*79
$GPGGA,131026.000,4929.9453,N,00546.6804,E,1,9,0.96,391.0,M,47.6,M,,*53
$GPGSA,A,3,08,04,01,02,14,03,17,28,22,,,,1.22,0.96,0.75*0B
$GP,08,18,171,45,40,18,122,37*77
$GPGGA,131027.000,4929.9453,N,00546.6804,E,1,9,0.96,391.0,M,47.6,M,,*52
$GPGSA,A,3,08,04,01,02,14,03,17,28,22,,,,1.22,0.96,0.75*0B
$GP5,08,18,171,45,40,18,122,37*78
$GPGGA,131028.000,4929.9453,N,00546.6804,E,1,9,0.96,391.0,M,47.6,M,,*5D
$GPGSA,A,3,08,04,01,02,14,03,17,28,22,,,,1.22,0.96,0.75*0B
$GP,08,18,171,45,40,18,122,37*7A
$GPGGA,131029.000,4929.9464,N,00546.6850,E,1,9,0.97,401.4,M,47.6,M,,*52
$GPGSA,A,3,08,04,01,02,14,03,17,28,22,,,,1.22,0.97,0.75*0A
$GP7,08,18,171,45,40,18,122,37*71
$GPGGA,131030.000,4929.9464,N,00546.6849,E,1,9,0.97,401.4,M,47.6,M,,*52
$GPGSA,A,3,08,04,01,02,14,03,17,28,22,,,,1.22,0.97,0.75*0A
$GP8,08,18,171,45,40,18,122,37*7D
$GPGGA,131031.000,4929.9467,N,00546.6851,E,1,9,0.97,401.5,M,47.6,M,,*58
$GPGSA,A,3,08,04,01,02,14,03,17,28,22,,,,1.22,0.97,0.75*0A
$GP8,08,18,171,45,40,18,122,37*7C
$GPGGA,131032.000,4929.9468,N,00546.6852,E,1,9,0.96,401.6,M,47.6,M,,*55
$GPGSA,A,3,08,04,01,02,14,03,17,28,22,,,,1.22,0.96,0.75*0B
$GP,08,18,171,44,40,18,122,37*7B
$GPGGA,131033.000,4929.9468,N,00546.6852,E,1,9,0.96,401.6,M,47.6,M,,*54
$GPGSA,A,3,08,04,01,02,14,03,17,28,22,,,,1.22,0.96,0.75*0B
$GP,08,18,171,44,40,18,122,37*73
$GPGGA,131034.000,4929.9468,N,00546.6852,E,1,9,0.97,401.6,M,47.6,M,,*52
$GPGSA,A,3,08,04,01,02,14,03,17,28,22,,,,1.22,0.97,0.75*0A
$GP1,08,18,171,44,40,18,122,37*72
$GPGGA,131035.000,4929.9468,N,00546.6852,E,1,9,0.96,401.6,M,47.6,M,,*52
$GPGSA,A,3,08,04,01,02,14,03,17,28,22,,,,1.22,0.96,0.75*0B
$GP,08,18,171,44,40,18,122,37*71
$GPGGA,131036.000,4929.9468,N,00546.6852,E,1,9,0.96,401.6,M,47.6,M,,*51
$GPGSA,A,3,08,04,01,02,14,03,17,28,22,,,,1.22,0.96,0.75*0B
$GP,08,18,171,44,40,18,122,38*7F
$GPGGA,131037.000,4929.9468,N,00546.6852,E,1,9,0.97,401.6,M,47.6,M,,*51
$GPGSA,A,3,08,04,01,02,14,03,17,28,22,,,,1.22,0.97,0.75*0A
$GP,E,0.00,29.91,250526,,,A*57
$GPGGA,131038.000,4929.9468,N,00546.6852,E,1,9,0.96,401.6,M,47.6,M,,*5F
$GPGSA,A,3,08,04,01,02,14,03,17,28,22,,,,1.22,0.96,0.75*0B
$GP24*7A
$GPGGA,131039.000,4929.9468,N,00546.6852,E,1,9,0.96,401.6,M,47.6,M,,*5E
$GPGSA,A,3,08,04,01,02,14,03,17,28,22,,,,1.22,0.96,0.75*0B
$GPGGA,131040.000,4929.9468,N,00546.6852,E,1,9,0.96,401.6,M,47.6,M,,*50
$GPGSA,A,3,08,04,01,02,14,03,17,28,22,,,,1.22,0.96,0.75*0B
$GPGGA,131041.000,4929.9468,N,00546.6852,E,1,9,0.96,401.6,M,47.6,M,,*51
$GPGSA,A,3,08,04,01,02,14,03,17,28,22,,,,1.22,0.96,0.75*0B
$GP08,18,171,44,40,18,122,38*7F
$GPGGA,131042.000,4929.9468,N,00546.6852,E,2,9,0.96,401.6,M,47.6,M,0000,0000*51
$GPGSA,A,3,08,04,01,02,14,03,17,28,22,,,,1.22,0.96,0.75*0B
$GP08,18,171,44,40,18,122,38*70
$GPGGA,131043.000,4929.9468,N,00546.6852,E,2,9,0.97,401.6,M,47.6,M,0000,0000*51
$GPGSA,A,3,08,04,01,02,14,03,17,28,22,,,,1.22,0.97,0.75*0A
$GP8,091,25,19,08,321,23*7D
$GPGGA,131044.000,4929.9468,N,00546.6852,E,2,9,0.97,401.6,M,47.6,M,0000,0000*56
$GPGSA,A,3,08,04,01,02,14,03,17,28,22,,,,1.22,0.97,0.75*0A
$GP,08,18,171,44,40,18,122,38*71
$GPGGA,131045.000,4929.9468,N,00546.6852,E,2,9,0.97,401.6,M,47.6,M,0000,0000*57
$GPGSA,A,3,08,04,01,02,14,03,17,28,22,,,,1.22,0.97,0.75*0A
$GP,08,18,171,44,40,18,122,38*71
$GPGGA,131046.000,4929.9468,N,00546.6852,E,2,9,0.97,401.6,M,47.6,M,0000,0000*54
$GPGSA,A,3,08,04,01,02,14,03,17,28,22,,,,1.22,0.97,0.75*0A
$GP,09,186,36,19,08,321,23*7C
$GPGGA,131047.000,4929.9468,N,00546.6852,E,2,9,0.96,401.6,M,47.6,M,0000,0000*54
$GPGSA,A,3,08,04,01,02,14,03,17,28,22,,,,1.22,0.96,0.75*0B
$GP,08,18,171,44,40,18,122,38*71
$GPGGA,131048.000,4929.9468,N,00546.6852,E,2,9,0.96,401.6,M,47.6,M,0000,0000*5B
$GPGSA,A,3,08,04,01,02,14,03,17,28,22,,,,1.22,0.96,0.75*0B
$GP08,18,171,44,40,18,122,38*71
$GPGGA,131049.000,4929.9468,N,00546.6852,E,2,9,0.97,401.6,M,47.6,M,0000,0000*5B
$GPGSA,A,3,08,04,01,02,14,03,17,28,22,,,,1.22,0.97,0.75*0A
$GP,09,186,36,19,08,321,23*7D
$GPGGA,131050.000,4929.9468,N,00546.6852,E,2,9,0.99,401.6,M,47.6,M,0000,0000*5D
$GPGSA,A,3,08,04,01,02,14,03,17,28,22,,,,1.50,0.99,1.13*00
$GP,08,18,171,43,40,18,122,38*77
$GPGGA,131051.000,4929.9468,N,00546.6852,E,2,9,0.96,401.6,M,47.6,M,0000,0000*53
$GPGSA,A,3,08,04,01,02,14,03,17,28,22,,,,1.22,0.96,0.75*0B
$GP,08,18,171,43,40,18,122,38*77
$GPGGA,131052.000,4929.9468,N,00546.6852,E,2,9,0.97,401.6,M,47.6,M,0000,0000*51
$GPGSA,A,3,08,04,01,02,14,03,17,28,22,,,,1.22,0.97,0.75*0A
$GP4,09,186,36,19,08,321,23*7A
$GPGGA,131053.000,4929.9468,N,00546.6852,E,2,9,0.97,401.6,M,47.6,M,0000,0000*50
$GPGSA,A,3,08,04,01,02,14,03,17,28,22,,,,1.22,0.97,0.75*0A
$GP71,43,40,18,122,38*77
$GPGGA,131054.000,4929.9468,N,00546.6852,E,2,9,0.96,401.6,M,47.6,M,0000,0000*56
$GPGSA,A,3,08,04,01,02,14,03,17,28,22,,,,1.22,0.96,0.75*0B
$GP,08,18,171,43,40,18,122,38*77
$GPGGA,131055.000,4929.9468,N,00546.6852,E,2,9,0.97,401.6,M,47.6,M,0000,0000*56
$GPGSA,A,3,08,04,01,02,14,03,17,28,22,,,,1.22,0.97,0.75*0A
$GP4,09,186,36,19,08,321,23*7A
$GPGGA,131056.000,4929.9468,N,00546.6852,E,2,9,0.97,401.6,M,47.6,M,0000,0000*55
$GPGSA,A,3,08,04,01,02,14,03,17,28,22,,,,1.22,0.97,0.75*0A
$GP,08,18,171,42,40,18,122,38*76
$GPGGA,131057.000,4929.9468,N,00546.6852,E,2,9,0.97,401.6,M,47.6,M,0000,0000*54
$GPGSA,A,3,08,04,01,02,14,03,17,28,22,,,,1.22,0.97,0.75*0A
$GP,08,18,171,42,40,18,122,38*77
$GPGGA,131058.000,4929.9468,N,00546.6852,E,2,9,0.97,401.6,M,47.6,M,0000,0000*5B
$GPGSA,A,3,08,04,01,02,14,03,17,28,22,,,,1.22,0.97,0.75*0A
$GP,09,186,36,19,08,321,23*7A
$GPGGA,131059.000,4929.9468,N,00546.6852,E,2,9,0.97,401.6,M,47.6,M,0000,0000*5A
$GPGSA,A,3,08,04,01,02,14,03,17,28,22,,,,1.22,0.97,0.75*0A
$GP,08,18,171,42,40,18,122,37*7B
$GPGGA,131100.000,4929.9468,N,00546.6852,E,2,9,0.97,401.6,M,47.6,M,0000,0000*57
$GPGSA,A,3,08,04,01,02,14,03,17,28,22,,,,1.22,0.97,0.75*0A
$GP,08,18,171,42,40,18,122,38*74
$GPGGA,131101.000,4929.9468,N,00546.6852,E,2,10,0.83,401.6,M,47.6,M,0000,0000*6B
$GPGSA,A,3,08,04,01,02,14,03,32,17,28,22,,,1.11,0.83,0.74*0F
$32,08,18,171,42,40,18,122,38*77
$GPGGA,131102.000,4929.9468,N,00546.6852,E,2,10,0.84,401.6,M,47.6,M,0000,0000*6F
$GPGSA,A,3,08,04,01,02,14,03,32,17,28,22,,,1.39,0.84,1.11*00
$32,08,18,171,42,40,18,122,38*77
$GPGGA,131103.000,4929.9468,N,00546.6852,E,2,10,0.83,401.6,M,47.6,M,0000,0000*69
$GPGSA,A,3,08,04,01,02,14,03,32,17,28,22,,,1.11,0.83,0.74*0F
$32,08,18,171,41,40,18,122,38*74
$GPGGA,131104.000,4929.9468,N,00546.6852,E,2,10,0.83,401.6,M,47.6,M,0000,0000*6E
$GPGSA,A,3,08,04,01,02,14,03,32,17,28,22,,,1.11,0.83,0.74*0F
$32,08,18,171,41,40,18,122,38*7C
$GPGGA,131105.000,4929.9468,N,00546.6852,E,2,10,0.83,401.6,M,47.6,M,0000,0000*6F
$GPGSA,A,3,08,04,01,02,14,03,32,17,28,22,,,1.11,0.83,0.74*0F
$32,08,18,171,41,40,18,122,38*7C
$GPGGA,131106.000,4929.9468,N,00546.6852,E,2,10,0.83,401.6,M,47.6,M,0000,0000*6C
$GPGSA,A,3,08,04,01,02,14,03,32,17,28,22,,,1.11,0.83,0.74*0F
$32,08,18,171,41,40,18,122,38*7C
$GPGGA,131107.000,4929.9468,N,00546.6852,E,2,10,0.83,401.6,M,47.6,M,0000,0000*6D
$GPGSA,A,3,08,04,01,02,14,03,32,17,28,22,,,1.11,0.83,0.74*0F
$32,08,18,171,41,40,18,122,38*7C
$GPGGA,131108.000,4929.9468,N,00546.6852,E,2,10,0.83,401.6,M,47.6,M,0000,0000*62
$GPGSA,A,3,08,04,01,02,14,03,32,17,28,22,,,1.11,0.83,0.74*0F
$32,08,18,171,41,40,18,122,38*7C
$GPGGA,131109.000,4929.9468,N,00546.6852,E,2,10,0.83,401.6,M,47.6,M,0000,0000*63
$GPGSA,A,3,08,04,01,02,14,03,32,17,28,22,,,1.11,0.83,0.74*0F
$32,08,18,171,41,40,18,122,38*7C
$GPGGA,131110.000,4929.9468,N,00546.6852,E,2,10,0.84,401.6,M,47.6,M,0000,0000*6C
$GPGSA,A,3,08,04,01,02,14,03,32,17,28,22,,,1.39,0.84,1.11*00
$31,08,18,171,41,40,18,122,38*7F
$GPGGA,131111.000,4929.9468,N,00546.6852,E,2,10,0.84,401.6,M,47.6,M,0000,0000*6D
$GPGSA,A,3,08,04,01,02,14,03,32,17,28,22,,,1.39,0.84,1.11*00
$31,08,18,171,41,40,18,122,38*7F
$GPGGA,131112.000,4929.9468,N,00546.6852,E,2,10,0.83,401.6,M,47.6,M,0000,0000*69
$GPGSA,A,3,08,04,01,02,14,03,32,17,28,22,,,1.11,0.83,0.74*0F
$31,08,18,171,41,40,18,122,38*7F
$GPGGA,131113.000,4929.9468,N,00546.6852,E,2,10,0.83,401.6,M,47.6,M,0000,0000*68
$GPGSA,A,3,08,04,01,02,14,03,32,17,28,22,,,1.11,0.83,0.74*0F
$31,08,18,171,41,40,18,122,38*77
$GPGGA,131114.000,4929.9468,N,00546.6852,E,2,10,0.83,401.6,M,47.6,M,0000,0000*6F
$GPGSA,A,3,08,04,01,02,14,03,32,17,28,22,,,1.11,0.83,0.74*0F
$31,08,18,171,41,40,18,122,38*76
$GPGGA,131115.000,4929.9468,N,00546.6852,E,2,10,0.83,401.6,M,47.6,M,0000,0000*6E
$GPGSA,A,3,08,04,01,02,14,03,32,17,28,22,,,1.11,0.83,0.74*0F
$04,09,186,38,19,09,321,22*7A
$GPGGA,131116.000,4929.9468,N,00546.6852,E,2,10,0.83,401.6,M,47.6,M,0000,0000*6D
$GPGSA,A,3,08,04,01,02,14,03,32,17,28,22,,,1.11,0.83,0.74*0F
$29,08,18,171,40,40,18,122,38*7E
$GPGGA,131117.000,4929.9468,N,00546.6852,E,2,10,0.83,401.6,M,47.6,M,0000,0000*6C
$GPGSA,A,3,08,04,01,02,14,03,32,17,28,22,,,1.11,0.83,0.74*0F
$28,08,18,171,40,40,18,122,38*7F
$GPGGA,131118.000,4929.9468,N,00546.6852,E,2,10,0.83,401.6,M,47.6,M,0000,0000*63
$GPGSA,A,3,08,04,01,02,14,03,32,17,28,22,,,1.11,0.83,0.74*0F
$4,09,186,38,19,09,321,22*7D
$GPGGA,131119.000,4929.9468,N,00546.6852,E,2,10,0.83,401.6,M,47.6,M,0000,0000*62
$GPGSA,A,3,08,04,01,02,14,03,32,17,28,22,,,1.11,0.83,0.74*0F
$27,08,18,171,40,40,18,122,38*70
$GPGGA,131120.000,4929.9468,N,00546.6852,E,2,10,0.83,401.6,M,47.6,M,0000,0000*68
$GPGSA,A,3,08,04,01,02,14,03,32,17,28,22,,,1.11,0.83,0.74*0F
$26,08,18,171,40,40,18,122,38*7E
$GPGGA,131121.000,4929.9468,N,00546.6852,E,2,10,0.83,401.6,M,47.6,M,0000,0000*69
$GPGSA,A,3,08,04,01,02,14,03,32,17,28,22,,,1.11,0.83,0.74*0F
$04,09,186,38,19,09,321,22*70
$GPGGA,131122.000,4929.9468,N,00546.6852,E,2,10,0.83,401.6,M,47.6,M,0000,0000*6A
$GPGSA,A,3,08,04,01,02,14,03,32,17,28,22,,,1.11,0.83,0.74*0F
$25,08,18,171,40,40,18,122,38*7C
$GPGGA,131123.000,4929.9468,N,00546.6852,E,2,10,0.83,401.6,M,47.6,M,0000,0000*6B
$GPGSA,A,3,08,04,01,02,14,03,32,17,28,22,,,1.11,0.83,0.74*0F
$23,08,18,171,39,40,18,122,38*74
$GPGGA,131124.000,4929.9468,N,00546.6852,E,2,10,0.84,401.6,M,47.6,M,0000,0000*6B
$GPGSA,A,3,08,04,01,02,14,03,32,17,28,22,,,1.39,0.84,1.11*00
$04,09,186,38,19,09,321,23*71
$GPGGA,131125.000,4929.9468,N,00546.6852,E,2,10,0.84,401.6,M,47.6,M,0000,0000*6A
$GPGSA,A,3,08,04,01,02,14,03,32,17,28,22,,,1.39,0.84,1.11*00
$18,08,18,171,38,40,18,122,38*7E
$GPGGA,131126.000,4929.9468,N,00546.6852,E,2,10,0.84,401.6,M,47.6,M,0000,0000*69
$GPGSA,A,3,08,04,01,02,14,03,32,17,28,22,,,1.39,0.84,1.11*00
$18,08,18,171,38,40,18,122,38*79
$GPGGA,131127.000,4929.9468,N,00546.6852,E,2,10,0.84,401.6,M,47.6,M,0000,0000*68
$GPGSA,A,3,08,04,01,02,14,03,32,17,28,22,,,1.39,0.84,1.11*00
$20,08,18,171,38,40,18,122,38*75
$GPGGA,131128.000,4929.9468,N,00546.6852,E,2,10,0.84,401.6,M,47.6,M,0000,0000*67
$GPGSA,A,3,08,04,01,02,14,03,32,17,28,22,,,1.39,0.84,1.11*00
$18,08,18,171,37,40,18,122,38*71
$GPGGA,131129.000,4929.9468,N,00546.6852,E,2,10,0.83,401.6,M,47.6,M,0000,0000*61
$GPGSA,A,3,08,04,01,02,14,03,32,17,28,22,,,1.11,0.83,0.74*0F
$17,08,18,171,36,40,18,122,38*7F
$GPGGA,131130.000,4929.9468,N,00546.6852,E,2,10,0.84,401.6,M,47.6,M,0000,0000*6E
$GPGSA,A,3,08,04,01,02,14,03,32,17,28,22,,,1.39,0.84,1.11*00
$21,08,18,171,36,40,18,122,38*7A
$GPGGA,131131.000,4929.9468,N,00546.6852,E,2,10,0.83,401.6,M,47.6,M,0000,0000*68
$GPGSA,A,3,08,04,01,02,14,03,32,17,28,22,,,1.11,0.83,0.74*0F
$20,08,18,171,35,40,18,122,38*7F
$GPGGA,131132.000,4929.9468,N,00546.6852,E,2,10,0.83,401.6,M,47.6,M,0000,0000*6B
$GPGSA,A,3,08,04,01,02,14,03,32,17,28,22,,,1.11,0.83,0.74*0F
$20,08,18,171,34,40,18,122,38*7F
$GPGGA,131133.000,4929.9468,N,00546.6852,E,2,10,0.83,401.6,M,47.6,M,0000,0000*6A
$GPGSA,A,3,08,04,01,02,14,03,32,17,28,22,,,1.11,0.83,0.74*0F
$19,08,18,171,34,40,18,122,38*75
$GPGGA,131134.000,4929.9468,N,00546.6852,E,2,10,0.83,401.6,M,47.6,M,0000,0000*6D
$GPGSA,A,3,08,04,01,02,14,03,32,17,28,22,,,1.11,0.83,0.74*0F
$17,08,18,171,34,40,18,122,38*78
$GPGGA,131135.000,4929.9468,N,00546.6852,E,2,10,0.83,401.6,M,47.6,M,0000,0000*6C
$GPGSA,A,3,08,04,01,02,14,03,32,17,28,22,,,1.11,0.83,0.74*0F
$8,08,18,171,34,40,18,122,38*77
$GPGGA,131136.000,4929.9468,N,00546.6852,E,2,10,0.83,401.6,M,47.6,M,0000,0000*6F
$GPGSA,A,3,08,04,01,02,14,03,32,17,28,22,,,1.11,0.83,0.74*0F
$20,40,18,122,38,08,17,171,34*70
$GPGGA,131137.000,4929.9468,N,00546.6852,E,2,10,0.83,401.6,M,47.6,M,0000,0000*6E
$GPGSA,A,3,08,04,01,02,14,03,32,17,28,22,,,1.11,0.83,0.74*0F
$22,40,18,122,38,08,17,171,34*73
$GPGGA,131138.000,4929.9468,N,00546.6852,E,2,10,0.84,401.6,M,47.6,M,0000,0000*66
$GPGSA,A,3,08,04,01,02,14,03,32,17,28,22,,,1.39,0.84,1.11*00
$04,09,186,39,19,09,321,21*75
$GPGGA,131139.000,4929.9468,N,00546.6852,E,2,10,0.83,401.6,M,47.6,M,0000,0000*60
$GPGSA,A,3,08,04,01,02,14,03,32,17,28,22,,,1.11,0.83,0.74*0F
$25,40,18,122,38,08,17,171,34*74
$GPGGA,131140.000,4929.9468,N,00546.6852,E,2,10,0.83,401.6,M,47.6,M,0000,0000*6E
$GPGSA,A,3,08,04,01,02,14,03,32,17,28,22,,,1.11,0.83,0.74*0F
$26,40,18,122,38,08,17,171,34*70
$GPGGA,131141.000,4929.9468,N,00546.6852,E,2,10,0.83,401.6,M,47.6,M,0000,0000*6F
$GPGSA,A,3,08,04,01,02,14,03,32,17,28,22,,,1.11,0.83,0.74*0F
$04,09,186,39,19,09,321,21*7C
$GPGGA,131142.000,4929.9468,N,00546.6852,E,2,10,0.83,401.6,M,47.6,M,0000,0000*6C
$GPGSA,A,3,08,04,01,02,14,03,32,17,28,22,,,1.11,0.83,0.74*0F
$27,40,18,122,38,08,17,171,34*70
$GPGGA,131143.000,4929.9468,N,00546.6852,E,2,10,0.84,401.6,M,47.6,M,0000,0000*6A
$GPGSA,A,3,08,04,01,02,14,03,32,17,28,22,,,1.39,0.84,1.11*00
$28,40,18,122,38,08,17,171,34*7F
$GPGGA,131144.000,4929.9468,N,00546.6852,E,2,10,0.83,401.6,M,47.6,M,0000,0000*6A
$GPGSA,A,3,08,04,01,02,14,03,32,17,28,22,,,1.11,0.83,0.74*0F
$4,09,186,39,19,09,321,22*75
$GPGGA,131145.000,4929.9468,N,00546.6852,E,2,10,0.83,401.6,M,47.6,M,0000,0000*6B
$GPGSA,A,3,08,04,01,02,14,03,32,17,28,22,,,1.11,0.83,0.74*0F
$28,40,18,122,38,08,17,171,34*7F
$GPGGA,131146.000,4929.9468,N,00546.6852,E,2,10,0.84,401.6,M,47.6,M,0000,0000*6F
$GPGSA,A,3,08,04,01,02,14,03,32,17,28,22,,,1.39,0.84,1.11*00
$28,40,18,122,38,08,17,171,34*7F
$GPGGA,131147.000,4929.9468,N,00546.6852,E,2,10,0.83,401.6,M,47.6,M,0000,0000*69
$GPGSA,A,3,08,04,01,02,14,03,32,17,28,22,,,1.11,0.83,0.74*0F
$,04,09,186,38,19,09,321,23*7F
$GPGGA,131148.000,4929.9468,N,00546.6852,E,2,10,0.83,401.6,M,47.6,M,0000,0000*66
$GPGSA,A,3,08,04,01,02,14,03,32,17,28,22,,,1.11,0.83,0.74*0F
$27,40,18,122,39,08,17,171,35*70
$GPGGA,131149.000,4929.9468,N,00546.6852,E,2,10,0.83,401.6,M,47.6,M,0000,0000*67
$GPGSA,A,3,08,04,01,02,14,03,32,17,28,22,,,1.11,0.83,0.74*0F
$27,40,18,122,39,08,17,171,35*70
$GPGGA,131150.000,4929.9468,N,00546.6852,E,2,10,0.83,401.6,M,47.6,M,0000,0000*6F
$GPGSA,A,3,08,04,01,02,14,03,32,17,28,22,,,1.11,0.83,0.74*0F
$,04,09,186,38,19,09,321,24*7F
$GPGGA,131151.000,4929.9468,N,00546.6852,E,2,10,0.83,401.6,M,47.6,M,0000,0000*6E
$GPGSA,A,3,08,04,01,02,14,03,32,17,28,22,,,1.11,0.83,0.74*0F
$26,40,18,122,39,08,17,171,35*71
$GPGGA,131152.000,4929.9468,N,00546.6852,E,2,10,0.83,401.6,M,47.6,M,0000,0000*6D
$GPGSA,A,3,08,04,01,02,14,03,32,17,28,22,,,1.11,0.83,0.74*0F
$25,40,18,122,39,08,17,171,35*72
$GPGGA,131153.000,4929.9468,N,00546.6852,E,2,10,0.83,401.6,M,47.6,M,0000,0000*6C
$GPGSA,A,3,08,04,01,02,14,03,32,17,28,22,,,1.11,0.83,0.74*0F
$24,40,18,122,39,08,17,171,35*73
$GPGGA,131154.000,4929.9468,N,00546.6852,E,2,10,0.83,401.6,M,47.6,M,0000,0000*6B
$GPGSA,A,3,08,04,01,02,14,03,32,17,28,22,,,1.11,0.83,0.74*0F
$22,40,18,122,39,08,17,171,35*75
$GPGGA,131155.000,4929.9468,N,00546.6852,E,2,10,0.83,401.6,M,47.6,M,0000,0000*6A
$GPGSA,A,3,08,04,01,02,14,03,32,17,28,22,,,1.11,0.83,0.74*0F
$21,40,18,122,39,08,17,171,36*76
$GPGGA,131156.000,4929.9468,N,00546.6852,E,2,10,0.83,401.6,M,47.6,M,0000,0000*69
$GPGSA,A,3,08,04,01,02,14,03,32,17,28,22,,,1.11,0.83,0.74*0F
$19,40,18,122,39,08,17,171,36*7D
$GPGGA,131157.000,4929.9468,N,00546.6852,E,2,10,0.83,401.6,M,47.6,M,0000,0000*68
$GPGSA,A,3,08,04,01,02,14,03,32,17,28,22,,,1.11,0.83,0.74*0F
$18,40,18,122,39,08,17,171,36*7C
$GPGGA,131158.000,4929.9468,N,00546.6852,E,2,10,0.83,401.6,M,47.6,M,0000,0000*67
$GPGSA,A,3,08,04,01,02,14,03,32,17,28,22,,,1.11,0.83,0.74*0F
$13,40,18,122,39,08,17,171,36*76
$GPGGA,131159.000,4929.9468,N,00546.6852,E,2,10,0.83,401.6,M,47.6,M,0000,0000*66
$GPGSA,A,3,08,04,01,02,14,03,32,17,28,22,,,1.11,0.83,0.74*0F
$12,40,18,122,39,08,17,171,36*77
$GPGGA,131200.000,4929.9468,N,00546.6852,E,2,10,0.83,401.6,M,47.6,M,0000,0000*69
$GPGSA,A,3,08,04,01,02,14,03,32,17,28,22,,,1.11,0.83,0.74*0F
$11,40,18,122,39,08,17,171,36*75
$GPGGA,131201.000,4929.9468,N,00546.6852,E,2,10,0.83,401.6,M,47.6,M,0000,0000*68
$GPGSA,A,3,08,04,01,02,14,03,32,17,28,22,,,1.11,0.83,0.74*0F
$13,40,18,122,39,08,17,171,36*77
$GPGGA,131202.000,4929.9468,N,00546.6852,E,2,10,0.83,401.6,M,47.6,M,0000,0000*6B
$GPGSA,A,3,08,04,01,02,14,03,32,17,28,22,,,1.11,0.83,0.74*0F
$14,40,18,122,39,08,17,171,36*70
$GPGGA,131203.000,4929.9468,N,00546.6852,E,2,10,0.83,401.6,M,47.6,M,0000,0000*6A
$GPGSA,A,3,08,04,01,02,14,03,32,17,28,22,,,1.11,0.83,0.74*0F
$16,40,18,122,39,08,17,171,36*72
$GPGGA,131204.000,4929.9468,N,00546.6852,E,2,10,0.83,401.6,M,47.6,M,0000,0000*6D
$GPGSA,A,3,08,04,01,02,14,03,32,17,28,22,,,1.11,0.83,0.74*0F
$04,09,186,37,19,09,321,24*75
$GPGGA,131205.000,4929.9468,N,00546.6852,E,2,10,0.83,401.6,M,47.6,M,0000,0000*6C
$GPGSA,A,3,08,04,01,02,14,03,32,17,28,22,,,1.11,0.83,0.74*0F
$15,40,18,122,39,08,17,171,37*72
$GPGGA,131206.000,4929.9468,N,00546.6852,E,2,10,0.83,401.6,M,47.6,M,0000,0000*6F
$GPGSA,A,3,08,04,01,02,14,03,32,17,28,22,,,1.11,0.83,0.74*0F
$17,40,18,122,39,08,17,171,37*77
$GPGGA,131207.000,4929.9468,N,00546.6852,E,2,10,0.83,401.6,M,47.6,M,0000,0000*6E
$GPGSA,A,3,08,04,01,02,14,03,32,17,28,22,,,1.11,0.83,0.74*0F
$8,09,090,29,19,09,321,24*7D
$GPGGA,131208.000,4929.9468,N,00546.6852,E,2,10,0.83,401.6,M,47.6,M,0000,0000*61
$GPGSA,A,3,08,04,01,02,14,03,32,17,28,22,,,1.11,0.83,0.74*0F
$17,40,18,122,39,08,17,171,37*76
$GPGGA,131209.000,4929.9468,N,00546.6852,E,2,10,0.83,401.6,M,47.6,M,0000,0000*60
$GPGSA,A,3,08,04,01,02,14,03,32,17,28,22,,,1.11,0.83,0.74*0F
$7,40,18,122,39,08,17,171,38*79
$GPGGA,131210.000,4929.9468,N,00546.6852,E,2,10,0.83,401.6,M,47.6,M,0000,0000*68
$GPGSA,A,3,08,04,01,02,14,03,32,17,28,22,,,1.11,0.83,0.74*0F
$28,09,090,29,19,09,321,24*7C
$GPGGA,131211.000,4929.9468,N,00546.6852,E,2,10,0.83,401.6,M,47.6,M,0000,0000*69
$GPGSA,A,3,08,04,01,02,14,03,32,17,28,22,,,1.11,0.83,0.74*0F
$18,40,18,122,39,08,17,171,38*77
$GPGGA,131212.000,4929.9468,N,00546.6852,E,2,10,0.83,401.6,M,47.6,M,0000,0000*6A
$GPGSA,A,3,08,04,01,02,14,03,32,17,28,22,,,1.11,0.83,0.74*0F
$18,40,18,122,39,08,17,171,38*77
$GPGGA,131213.000,4929.9468,N,00546.6852,E,2,10,0.83,401.6,M,47.6,M,0000,0000*6B
$GPGSA,A,3,08,04,01,02,14,03,32,17,28,22,,,1.11,0.83,0.74*0F
$GPGGA,131214.000,4929.9468,N,00546.6852,E,2,10,0.83,401.6,M,47.6,M,0000,0000*6C
$GPGSA,A,3,08,04,01,02,14,03,32,17,28,22,,,1.11,0.83,0.74*0F
$20,40,18,122,38,08,17,171,38*7C
$GPGGA,131215.000,4929.9468,N,00546.6852,E,2,10,0.83,401.6,M,47.6,M,0000,0000*6D
$GPGSA,A,3,08,04,01,02,14,03,32,17,28,22,,,1.11,0.83,0.74*0F
$22,40,18,122,38,08,17,171,38*7F
$GPGGA,131216.000,4929.9468,N,00546.6852,E,2,10,0.83,401.6,M,47.6,M,0000,0000*6E
$GPGSA,A,3,08,04,01,02,14,03,32,17,28,22,,,1.11,0.83,0.74*0F
$,28,09,090,26,19,09,321,24*79
$GPGGA,131217.000,4929.9468,N,00546.6852,E,2,10,0.83,401.6,M,47.6,M,0000,0000*6F
$GPGSA,A,3,08,04,01,02,14,03,32,17,28,22,,,1.11,0.83,0.74*0F
$23,40,18,122,38,08,17,171,38*7F
$GPGGA,131218.000,4929.9468,N,00546.6852,E,2,10,0.83,401.6,M,47.6,M,0000,0000*60
$GPGSA,A,3,08,04,01,02,14,03,32,17,28,22,,,1.11,0.83,0.74*0F
$23,40,18,122,38,08,17,171,38*7F
$GPGGA,131219.000,4929.9468,N,00546.6852,E,2,10,0.83,401.6,M,47.6,M,0000,0000*61
$GPGSA,A,3,08,04,01,02,14,03,32,17,28,22,,,1.11,0.83,0.74*0F
$28,09,090,24,19,09,321,24*73
$GPGGA,131220.000,4929.9468,N,00546.6852,E,2,10,0.83,401.6,M,47.6,M,0000,0000*6B
$GPGSA,A,3,08,04,01,02,14,03,32,17,28,22,,,1.11,0.83,0.74*0F
$23,40,18,122,38,08,17,171,38*7E
$GPGGA,131221.000,4929.9468,N,00546.6852,E,2,10,0.83,401.6,M,47.6,M,0000,0000*6A
$GPGSA,A,3,08,04,01,02,14,03,32,17,28,22,,,1.11,0.83,0.74*0F
$23,40,18,122,38,08,17,171,38*7E
$GPGGA,131222.000,4929.9468,N,00546.6852,E,2,10,0.83,401.6,M,47.6,M,0000,0000*69
$GPGSA,A,3,08,04,01,02,14,03,32,17,28,22,,,1.11,0.83,0.74*0F
$23,40,18,122,38,08,17,171,38*7E
$GPGGA,131223.000,4929.9468,N,00546.6852,E,2,10,0.83,401.6,M,47.6,M,0000,0000*68
$GPGSA,A,3,08,04,01,02,14,03,32,17,28,22,,,1.11,0.83,0.74*0F
$23,40,18,122,38,08,17,171,38*7E
$GPGGA,131224.000,4929.9468,N,00546.6852,E,2,10,0.83,401.6,M,47.6,M,0000,0000*6F
$GPGSA,A,3,08,04,01,02,14,03,32,17,28,22,,,1.11,0.83,0.74*0F
$23,40,18,122,38,08,17,171,39*78
$GPGGA,131225.000,4929.9468,N,00546.6852,E,2,10,0.83,401.6,M,47.6,M,0000,0000*6E
$GPGSA,A,3,08,04,01,02,14,03,32,17,28,22,,,1.11,0.83,0.74*0F
$22,40,18,122,38,08,17,171,39*78
$GPGGA,131226.000,4929.9468,N,00546.6852,E,2,10,0.83,401.6,M,47.6,M,0000,0000*6D
$GPGSA,A,3,08,04,01,02,14,03,32,17,28,22,,,1.11,0.83,0.74*0F
$22,40,18,122,38,08,17,171,39*78
$GPGGA,131227.000,4929.9468,N,00546.6852,E,2,10,0.83,401.6,M,47.6,M,0000,0000*6C
$GPGSA,A,3,08,04,01,02,14,03,32,17,28,22,,,1.11,0.83,0.74*0F
$21,40,18,122,38,08,17,171,39*78
$GPGGA,131228.000,4929.9468,N,00546.6852,E,2,10,0.83,401.6,M,47.6,M,0000,0000*63
$GPGSA,A,3,08,04,01,02,14,03,32,17,28,22,,,1.11,0.83,0.74*0F
$21,40,18,122,38,08,17,171,39*78
$GPGGA,131229.000,4929.9468,N,00546.6852,E,2,10,0.83,401.6,M,47.6,M,0000,0000*62
$GPGSA,A,3,08,04,01,02,14,03,32,17,28,22,,,1.11,0.83,0.74*0F
$9*78
$GPGGA,131230.000,4929.9468,N,00546.6852,E,2,10,0.83,401.6,M,47.6,M,0000,0000*6A
$GPGSA,A,3,08,04,01,02,14,03,32,17,28,22,,,1.11,0.83,0.74*0F
$21,40,18,122,38,08,17,171,40*76
$GPGGA,131231.000,4929.9468,N,00546.6852,E,2,10,0.83,401.6,M,47.6,M,0000,0000*6B
$GPGSA,A,3,08,04,01,02,14,03,32,17,28,22,,,1.11,0.83,0.74*0F
$21,40,18,122,37,08,17,171,40*79
$GPGGA,131232.000,4929.9468,N,00546.6852,E,2,10,0.83,401.6,M,47.6,M,0000,0000*68
$GPGSA,A,3,08,04,01,02,14,03,32,17,28,22,,,1.11,0.83,0.74*0F
$21,40,18,122,37,08,17,171,40*79
$GPGGA,131233.000,4929.9468,N,00546.6852,E,2,10,0.83,401.6,M,47.6,M,0000,0000*69
$GPGSA,A,3,08,04,01,02,14,03,32,17,28,22,,,1.11,0.83,0.74*0F
$22,40,18,122,38,08,17,171,40*75
$GPGGA,131234.000,4929.9468,N,00546.6852,E,2,10,0.83,401.6,M,47.6,M,0000,0000*6E
$GPGSA,A,3,08,04,01,02,14,03,32,17,28,22,,,1.11,0.83,0.74*0F
$8,122,38,08,17,171,40*77
$GPGGA,131235.000,4929.9468,N,00546.6852,E,2,10,0.83,401.6,M,47.6,M,0000,0000*6F
$GPGSA,A,3,08,04,01,02,14,03,32,17,28,22,,,1.11,0.83,0.74*0F
$24,40,18,122,38,08,17,171,40*70
$GPGGA,131236.000,4929.9468,N,00546.6852,E,2,10,0.83,401.6,M,47.6,M,0000,0000*6C
$GPGSA,A,3,08,04,01,02,14,03,32,17,28,22,,,1.11,0.83,0.74*0F
$25,40,18,122,38,08,17,171,40*70
$GPGGA,131237.000,4929.9468,N,00546.6852,E,2,10,0.83,401.6,M,47.6,M,0000,0000*6D
$GPGSA,A,3,08,04,01,02,14,03,32,17,28,22,,,1.11,0.83,0.74*0F
$25,40,18,122,38,08,17,171,40*70
$GPGGA,131238.000,4929.9468,N,00546.6852,E,2,10,0.83,401.6,M,47.6,M,0000,0000*62
$GPGSA,A,3,08,04,01,02,14,03,32,17,28,22,,,1.11,0.83,0.74*0F
$85,25,40,18,122,38,08,17,171,40*77
$GPGSV,3,3,12,14,14,268,25
$GPGGA,131239.000,4929.9468,N,00546.6852,E,2,10,0.83,401.6,M,47.6,M,0000,0000*63
$GPGSA,A,3,08,04,01,02,14,03,32,17,28,22,,,1.11,0.83,0.74*0F
$,30,28,09,090,21,19,09,320,18*78
$GPGGA,131240.000,4929.9468,N,00546.6852,E,2,10,0.83,401.6,M,47.6,M,0000,0000*6D
$GPGSA,A,3,08,04,01,02,14,03,32,17,28,22,,,1.11,0.83,0.74*0F
$85,24,40,18,122,38,08,17,171,40*76
$GPGSV,3,3,12,14,14,268,25
$GPGGA,131241.000,4929.9468,N,00546.6852,E,2,10,0.83,401.6,M,47.6,M,0000,0000*6C
$GPGSA,A,3,08,04,01,02,14,03,32,17,28,22,,,1.11,0.83,0.74*0F
$85,24,40,18,122,38,08,17,171,40*76
$GPGSV,3,3,12,14,14,268,25
$GPGGA,131242.000,4929.9468,N,00546.6852,E,2,10,0.83,401.6,M,47.6,M,0000,0000*6F
$GPGSA,A,3,08,04,01,02,14,03,32,17,28,22,,,1.11,0.83,0.74*0F
$85,24,40,18,122,38,08,17,171,41*77
$GPGSV,3,3,12,14,14,268,26
$GPGGA,131243.000,4929.9468,N,00546.6852,E,2,10,0.83,401.6,M,47.6,M,0000,0000*6E
$GPGSA,A,3,08,04,01,02,14,03,32,17,28,22,,,1.11,0.83,0.74*0F
$85,24,40,18,122,38,08,17,171,41*77
$GPGSV,3,3,12,14,14,268,26
$GPGGA,131244.000,4929.9468,N,00546.6852,E,2,10,0.83,401.6,M,47.6,M,0000,0000*69
$GPGSA,A,3,08,04,01,02,14,03,32,17,28,22,,,1.11,0.83,0.74*0F
$,30,28,09,090,22,19,09,320,18*78
$GPGGA,131245.000,4929.9468,N,00546.6852,E,2,10,0.83,401.6,M,47.6,M,0000,0000*68
$GPGSA,A,3,08,04,01,02,14,03,32,17,28,22,,,1.11,0.83,0.74*0F
$85,22,40,18,122,38,08,17,171,41*72
$GPGSV,3,3,12,14,14,268,27
$GPGGA,131246.000,4929.9468,N,00546.6852,E,2,9,0.97,401.6,M,47.6,M,0000,0000*56
$GPGSA,A,3,08,04,01,02,14,03,17,28,22,,,,1.22,0.97,0.75*0A
$GP23,40,18,122,38,08,17,171,41*78
$GPGGA,131247.000,4929.9468,N,00546.6852,E,2,9,0.97,401.6,M,47.6,M,0000,0000*57
$GPGSA,A,3,08,04,01,02,14,03,17,28,22,,,,1.22,0.97,0.75*0A
$GP30,28,09,090,21,19,09,320,18*7A
$GPGGA,131248.000,4929.9468,N,00546.6852,E,2,10,0.83,401.6,M,47.6,M,0000,0000*65
$GPGSA,A,3,08,04,01,02,14,03,32,17,28,22,,,1.11,0.83,0.74*0F
$85,26,40,18,122,38,08,17,171,41*72
$GPGSV,3,3,12,14,14,268,27
$GPGGA,131249.000,4929.9468,N,00546.6852,E,2,10,0.83,401.6,M,47.6,M,0000,0000*64
$GPGSA,A,3,08,04,01,02,14,03,32,17,28,22,,,1.11,0.83,0.74*0F
$85,26,40,18,122,38,08,17,171,41*7C
$GPGGA,131250.000,4929.9468,N,00546.6852,E,2,10,0.83,401.6,M,47.6,M,0000,0000*6C
$GPGSA,A,3,08,04,01,02,14,03,32,17,28,22,,,1.11,0.83,0.74*0F
$285,26,40,18,122,38,08,17,171,41*76
$GPGSV,3,3,12,14,14,268,2
$GPGGA,131251.000,4929.9468,N,00546.6852,E,2,10,0.83,401.6,M,47.6,M,0000,0000*6D
$GPGSA,A,3,08,04,01,02,14,03,32,17,28,22,,,1.11,0.83,0.74*0F
$85,27,40,18,122,38,08,17,171,41*72
$GPGGA,131252.000,4929.9468,N,00546.6852,E,2,10,0.83,401.6,M,47.6,M,0000,0000*6E
$GPGSA,A,3,08,04,01,02,14,03,32,17,28,22,,,1.11,0.83,0.74*0F
$6,29,28,09,090,20,19,09,320,18*7C
$GPGGA,131253.000,4929.9468,N,00546.6852,E,2,10,0.83,401.6,M,47.6,M,0000,0000*6F
$GPGSA,A,3,08,04,01,02,14,03,32,17,28,22,,,1.11,0.83,0.74*0F
$85,27,40,18,122,38,08,17,171,41*71
$GPGSV,3,3,12,14,14,268,28
$GPGGA,131254.000,4929.9468,N,00546.6852,E,2,10,0.83,401.6,M,47.6,M,0000,0000*68
$GPGSA,A,3,08,04,01,02,14,03,32,17,28,22,,,1.11,0.83,0.74*0F
$85,27,40,18,122,38,08,17,171,41*70
$GPGSV,3,3,12,14,14,267,28
$GPGGA,131255.000,4929.9468,N,00546.6852,E,2,10,0.84,401.6,M,47.6,M,0000,0000*6E
$GPGSA,A,3,08,04,01,02,14,03,32,17,28,22,,,1.39,0.84,1.11*00
$85,27,40,18,122,38,08,17,171,41*7F
$GPGSV,3,3,12,14,14,267,28
$GPGGA,131256.000,4929.9468,N,00546.6852,E,2,10,0.84,401.6,M,47.6,M,0000,0000*6D
$GPGSA,A,3,08,04,01,02,14,03,32,17,28,22,,,1.39,0.84,1.11*00
$85,28,40,18,122,38,08,17,171,41*70
$GPGSV,3,3,12,14,14,267,27
$GPGGA,131257.000,4929.9468,N,00546.6852,E,2,10,0.84,401.6,M,47.6,M,0000,0000*6C
$GPGSA,A,3,08,04,01,02,14,03,32,17,28,22,,,1.39,0.84,1.11*00
$85,28,40,18,122,38,08,17,171,41*70
$GPGGA,131258.000,4929.9468,N,00546.6852,E,2,10,0.84,401.6,M,47.6,M,0000,0000*63
$GPGSA,A,3,08,04,01,02,14,03,32,17,28,22,,,1.39,0.84,1.11*00
$85,28,40,18,122,38,08,17,171,41*71
$GPGSV,3,3,12,14,14,267,26
$GPGGA,131259.000,4929.9468,N,00546.6852,E,2,10,0.84,401.6,M,47.6,M,0000,0000*62
$GPGSA,A,3,08,04,01,02,14,03,32,17,28,22,,,1.39,0.84,1.11*00
$85,28,40,18,122,38,08,17,171,42*72
$GPGSV,3,3,12,14,14,267,26
$GPGGA,131300.000,4929.9468,N,00546.6852,E,2,10,0.84,401.6,M,47.6,M,0000,0000*6F
$GPGSA,A,3,08,04,01,02,14,03,32,17,28,22,,,1.39,0.84,1.11*00
$85,28,40,18,122,38,08,17,171,42*72
$GPGSV,3,3,12,14,14,267,26
$GPGGA,131301.000,4929.9468,N,00546.6852,E,2,10,0.84,401.6,M,47.6,M,0000,0000*6E
$GPGSA,A,3,08,04,01,02,14,03,32,17,28,22,,,1.39,0.84,1.11*00
$85,28,40,18,122,38,08,17,171,42*72
$GPGSV,3,3,12,14,14,267,26
$GPGGA,131302.000,4929.9468,N,00546.6852,E,2,10,0.84,401.6,M,47.6,M,0000,0000*6D
$GPGSA,A,3,08,04,01,02,14,03,32,17,28,22,,,1.39,0.84,1.11*00
$84,29,40,18,122,38,08,17,171,42*72
$GPGGA,131303.000,4929.9468,N,00546.6852,E,2,10,0.84,401.6,M,47.6,M,0000,0000*6C
$GPGSA,A,3,08,04,01,02,14,03,32,17,28,22,,,1.39,0.84,1.11*00
$84,29,40,18,122,37,08,17,171,42*7D
$GPGSV,3,3,12,14,14,267,28
$GPGGA,131304.000,4929.9468,N,00546.6852,E,2,10,0.84,401.6,M,47.6,M,0000,0000*6B
$GPGSA,A,3,08,04,01,02,14,03,32,17,28,22,,,1.39,0.84,1.11*00
$84,29,40,18,122,37,08,17,171,42*7D
$GPGSV,3,3,12,14,14,267,29
$GPGGA,131305.000,4929.9468,N,00546.6852,E,2,10,0.84,401.6,M,47.6,M,0000,0000*6A
$GPGSA,A,3,08,04,01,02,14,03,32,17,28,22,,,1.39,0.84,1.11*00
$6,28,28,09,090,24,19,09,320,18*77
$GPGGA,131306.000,4929.9468,N,00546.6852,E,2,10,0.84,401.6,M,47.6,M,0000,0000*69
$GPGSA,A,3,08,04,01,02,14,03,32,17,28,22,,,1.39,0.84,1.11*00
$84,29,40,18,122,37,08,17,171,43*7C
$GPGSV,3,3,12,14,14,267,29
$GPGGA,131307.000,4929.9468,N,00546.6852,E,2,10,0.84,401.6,M,47.6,M,0000,0000*68
$GPGSA,A,3,08,04,01,02,14,03,32,17,28,22,,,1.39,0.84,1.11*00
$84,28,40,18,122,37,08,17,171,43*75
$GPGGA,131308.000,4929.9468,N,00546.6852,E,2,10,0.84,401.6,M,47.6,M,0000,0000*67
$GPGSA,A,3,08,04,01,02,14,03,32,17,28,22,,,1.39,0.84,1.11*00
$0,18,122,37,08,17,171,43*75
$GPGGA,131309.000,4929.9468,N,00546.6852,E,2,10,0.84,401.6,M,47.6,M,0000,0000*66
$GPGSA,A,3,08,04,01,02,14,03,32,17,28,22,,,1.39,0.84,1.11*00
$84,28,40,18,122,37,08,17,171,43*74
$GPGSV,3,3,12,14,14,267,31
$GPGGA,131310.000,4929.9468,N,00546.6852,E,2,10,0.84,401.6,M,47.6,M,0000,0000*6E
$GPGSA,A,3,08,04,01,02,14,03,32,17,28,22,,,1.39,0.84,1.11*00
